[{"Name":"Robert Bendheim Playground","Category":"Public","Address":"E. 100th St. at 5th Avenue","Hours":"Park Hours","Handicap Access...":"No","coordinate":[-82.337074,29.658042]},{"Name":"Conservatory Garden","Category":"Public","Address":"105 Street at 5th Avenue","Hours":"Park Hours","Handicap Access...":"Yes","coordinate":[-80.149045,26.385695]},{"Name":"Model Boathouse (Kerbs) Cafe at Conservatory Water","Category":"Public","Address":"E. 74th near 5th Avenue","Hours":"Park Hours","Handicap Access...":"Yes","coordinate":[174.3119448,-35.72319595]},{"Name":"STARBUCKS","Category":"Coffee Shop","Address":"1128 Third Avenue New York NY, 10021","Hours":null,"Handicap Access...":null,"coordinate":[-73.963682,40.76594]},{"Name":"Washington Square Park","Category":"Public","Address":"Washington Sq South & Thompson St.","Hours":"park open hour","Handicap Access...":"No","coordinate":[-73.9980696,40.7302877]},{"Name":"STARBUCKS","Category":"Coffee Shop","Address":"943 Second Avenue New York NY, 10022","Hours":null,"Handicap Access...":null,"coordinate":[-73.968689,40.755071]},{"Name":"STARBUCKS","Category":"Coffee Shop","Address":"135 East 57th Street New York NY, 10022","Hours":null,"Handicap Access...":null,"coordinate":[-73.969356,40.761321]},{"Name":"Lasker Skating Rink","Category":"Public","Address":"106th, Mid~Park","Hours":"Park Hours","Handicap Access...":"No","coordinate":[-76.605744,39.357331]},{"Name":"STARBUCKS","Category":"Coffee Shop","Address":"116 E. 57th Street New York NY, 10022","Hours":null,"Handicap Access...":null,"coordinate":[-73.969957,40.761071]},{"Name":"STARBUCKS","Category":"Coffee Shop","Address":"830 Third Avenue New York NY, 10022","Hours":null,"Handicap Access...":null,"coordinate":[-73.970751,40.756377]},{"Name":"STARBUCKS","Category":"Coffee Shop","Address":"630 Lexington Ave New York NY, 10017","Hours":null,"Handicap Access...":null,"coordinate":[-73.971094,40.758784]},{"Name":"Starbucks","Category":"Coffee Shop","Address":"124 Eighth Avenue","Hours":"Starbucks Hours","Handicap Access...":"No","coordinate":[151.55429,-33.216549]},{"Name":"Starbucks","Category":"Coffee Shop","Address":"360 Lexington Avenue","Hours":"Starbucks Hours","Handicap Access...":"No","coordinate":[-73.976742,40.750393]},{"Name":"Starbucks","Category":"Coffee Shop","Address":"152 ~ 154 Columbus Avenue","Hours":"Starbucks Hours","Handicap Access...":"No","coordinate":[-64.785453,46.122386]},{"Name":"Starbucks","Category":"Coffee Shop","Address":"Grand Central Station","Hours":"Starbucks Hours","Handicap Access...":"No","coordinate":[-88.072342,44.505791]},{"Name":"Sheep Meadow Cafe at Mineral Springs","Category":"Other","Address":"W. 69th St. North of Sheep Meadow","Hours":"Cafe Hours (Closed in Winter)","Handicap Access...":"Yes","coordinate":[119.8679974,-0.8957793]},{"Name":"STARBUCKS","Category":"Coffee Shop","Address":"599 Lexington New York NY, 10022","Hours":null,"Handicap Access...":null,"coordinate":[-73.970827,40.757896]},{"Name":"STARBUCKS","Category":"Coffee Shop","Address":"757 Third Avenue New York NY, 10017","Hours":null,"Handicap Access...":null,"coordinate":[-73.971893,40.753872]},{"Name":"STARBUCKS","Category":"Coffee Shop","Address":"560 Lexington Avenue New York NY, 10022","Hours":null,"Handicap Access...":null,"coordinate":[-73.972294,40.756631]},{"Name":"STARBUCKS","Category":"Coffee Shop","Address":"511 Lexington Avenue New York NY, 10017","Hours":null,"Handicap Access...":null,"coordinate":[-73.973085,40.754934]},{"Name":"STARBUCKS","Category":"Coffee Shop","Address":"550 Madison Avenue New York NY, 10022","Hours":null,"Handicap Access...":null,"coordinate":[-73.973509,40.761416]},{"Name":"STARBUCKS","Category":"Coffee Shop","Address":"55 E 53rd St New York NY, 10022","Hours":null,"Handicap Access...":null,"coordinate":[-73.972882,40.759172]},{"Name":"STARBUCKS","Category":"Coffee Shop","Address":"685 Third Avenue New York NY, 10017","Hours":null,"Handicap Access...":null,"coordinate":[-73.973487,40.751591]},{"Name":"STARBUCKS","Category":"Coffee Shop","Address":"725 5th Avenue New York NY, 10022","Hours":null,"Handicap Access...":null,"coordinate":[-73.97395,40.762391]},{"Name":"STARBUCKS","Category":"Coffee Shop","Address":"45 E. 51st Street NY NY, 10022","Hours":null,"Handicap Access...":null,"coordinate":[-73.97412,40.75832]},{"Name":"STARBUCKS","Category":"Coffee Shop","Address":"639 3rd Avenue New York NY, 10017","Hours":null,"Handicap Access...":null,"coordinate":[-73.974601,40.750084]},{"Name":"STARBUCKS","Category":"Coffee Shop","Address":"450 Lexington Avenue New York NY, 10017","Hours":null,"Handicap Access...":null,"coordinate":[-73.9748,40.75335]},{"Name":"STARBUCKS","Category":"Coffee Shop","Address":"280 Park Avenue New York NY, 10017","Hours":null,"Handicap Access...":null,"coordinate":[-73.975681,40.756314]},{"Name":"STARBUCKS","Category":"Coffee Shop","Address":"150 E. 42nd Street New York NY, 10017","Hours":null,"Handicap Access...":null,"coordinate":[-73.974795,40.750727]},{"Name":"Merchants Gate","Category":"Public","Address":"W. 61st and Central Park West","Hours":"Park Hours","Handicap Access...":"No","coordinate":[1.5767664347,42.5486542502]},{"Name":"North Meadow Recreation Center","Category":"Public","Address":"97th Street Transverse Road, Central Park","Hours":null,"Handicap Access...":"Yes","coordinate":[-73.96074,40.7889]},{"Name":"Angelika Film Center","Category":"Other","Address":"18 W Houston St, New York","Hours":"during show time","Handicap Access...":"Yes","coordinate":[-73.997115,40.725911]},{"Name":"Bethesda Terrace","Category":"Public","Address":"72nd Street Mid~Park","Hours":"closed in winter","Handicap Access...":"No","coordinate":[-76.40584,36.97649]},{"Name":"Central Park Zoo","Category":"Public","Address":"E. 64th near 5th","Hours":"Park Hours (Fee Required)","Handicap Access...":"No","coordinate":[-117.13573,47.59523]},{"Name":"Starbucks","Category":"Coffee Shop","Address":"177 Eighth Avenue","Hours":"Starbucks Hours","Handicap Access...":"No","coordinate":[150.808957,-33.938322]},{"Name":"Starbucks","Category":"Coffee Shop","Address":"107 E 43rd St and Lexington Ave","Hours":"Starbucks Hours","Handicap Access...":"No","coordinate":[-73.42323,41.09017]},{"Name":"Starbucks","Category":"Coffee Shop","Address":"301 Park Ave","Hours":"Starbucks Hours","Handicap Access...":"No","coordinate":[151.691226,-32.945955]},{"Name":"Starbucks","Category":"Coffee Shop","Address":"1 Penn Plaza Concourse Level New York NY","Hours":"Starbucks Hours","Handicap Access...":"No","coordinate":[-73.99295,40.7512]},{"Name":"5 Guys","Category":"Other","Address":"La Gaurdia Place","Hours":null,"Handicap Access...":"Yes","coordinate":[-73.99871,40.728655]},{"Name":"Dana Discovery Center","Category":"Public","Address":"110th Street at Lenox Avenue","Hours":null,"Handicap Access...":"No","coordinate":[-94.49517,40.88512]},{"Name":"Bryant Park","Category":"Public","Address":"42nd St. between 5th and 6th Avenue","Hours":"Park Hours","Handicap Access...":"No","coordinate":[-122.46257,47.21902]},{"Name":"STARBUCKS","Category":"Coffee Shop","Address":"424 Park Avenue South New York NY, 10016","Hours":null,"Handicap Access...":null,"coordinate":[-73.98372,40.744175]},{"Name":"STARBUCKS","Category":"Coffee Shop","Address":"1100 Avenue of the Americas New York NY, 10028","Hours":null,"Handicap Access...":null,"coordinate":[-73.98399,40.75489]},{"Name":"Tennis House","Category":"Public","Address":"94th Street Mid~Park","Hours":"park open hours","Handicap Access...":"No","coordinate":[-114.22268,34.173305]},{"Name":"Ramble Shed","Category":"Public","Address":"79th Street Mid~Park","Hours":"Park Hours","Handicap Access...":"No","coordinate":[-73.855085,40.66672]},{"Name":"The Arsenal","Category":"Public","Address":"E. 64th St. at 5th Avenue","Hours":"Park Hours","Handicap Access...":"No","coordinate":[-80.084335,26.40562]},{"Name":"STARBUCKS","Category":"Coffee Shop","Address":"2 Columbus Avenue New York NY, 10023","Hours":null,"Handicap Access...":null,"coordinate":[-73.984972,40.769491]},{"Name":"STARBUCKS","Category":"Coffee Shop","Address":"1585 Broadway New York NY, 10036","Hours":null,"Handicap Access...":null,"coordinate":[-73.985548,40.759697]},{"Name":"Starbucks","Category":"Coffee Shop","Address":"79 Washington Square","Hours":"Starbucks Hours","Handicap Access...":"No","coordinate":[-84.792714,39.855825]},{"Name":"Starbucks","Category":"Coffee Shop","Address":"825 Eighth Avenue","Hours":"Starbucks Hours","Handicap Access...":"No","coordinate":[-73.986025,40.762853]},{"Name":"Starbucks","Category":"Coffee Shop","Address":"1559 2nd Avenue","Hours":"Starbucks Hours","Handicap Access...":"No","coordinate":[-79.298946,43.173254]},{"Name":"STARBUCKS","Category":"Coffee Shop","Address":"871 8th Avenue New York NY, 10019","Hours":null,"Handicap Access...":null,"coordinate":[-73.985304,40.763782]},{"Name":"STARBUCKS","Category":"Coffee Shop","Address":"334 Fifth Ave. New York NY, 10001","Hours":null,"Handicap Access...":null,"coordinate":[-73.98545,40.7474]},{"Name":"STARBUCKS","Category":"Coffee Shop","Address":"1535 Broadway New York NY, 10036","Hours":null,"Handicap Access...":null,"coordinate":[-73.986582,40.757922]},{"Name":"STARBUCKS","Category":"Coffee Shop","Address":"1460 Broadway New York NY, 10018","Hours":null,"Handicap Access...":null,"coordinate":[-73.982247,40.766026]},{"Name":"STARBUCKS","Category":"Coffee Shop","Address":"145 Third Avenue New York NY, 10003","Hours":null,"Handicap Access...":null,"coordinate":[-73.98657,40.73381]},{"Name":"STARBUCKS","Category":"Coffee Shop","Address":"304 Park Avenue South New York NY, 10010","Hours":null,"Handicap Access...":null,"coordinate":[-73.986944,40.740522]},{"Name":"STARBUCKS","Category":"Coffee Shop","Address":"261 Fifth Avenue New York NY, 10016","Hours":null,"Handicap Access...":null,"coordinate":[-73.986634,40.744959]},{"Name":"STARBUCKS","Category":"Coffee Shop","Address":"325 W 49th St New York NY, 10019","Hours":null,"Handicap Access...":null,"coordinate":[-73.987501,40.762196]},{"Name":"STARBUCKS","Category":"Coffee Shop","Address":"770 Eighth Ave NY NY, 10019","Hours":null,"Handicap Access...":null,"coordinate":[-73.987126,40.76048]},{"Name":"STARBUCKS","Category":"Coffee Shop","Address":"1372 Broadway New York NY, 10018","Hours":null,"Handicap Access...":null,"coordinate":[-73.986582,40.752532]},{"Name":"STARBUCKS","Category":"Coffee Shop","Address":"525 7th Avenue New York NY, 10018","Hours":null,"Handicap Access...":null,"coordinate":[-73.98819,40.7535]},{"Name":"STARBUCKS","Category":"Coffee Shop","Address":"684 Eighth Avenue New York NY, 10036","Hours":null,"Handicap Access...":null,"coordinate":[-73.98899,40.75802]},{"Name":"STARBUCKS","Category":"Coffee Shop","Address":"875 Sixth Ave New York NY, 10001","Hours":null,"Handicap Access...":null,"coordinate":[-73.989513,40.747777]},{"Name":"STARBUCKS","Category":"Coffee Shop","Address":"10 UNION SQUARE EAST New York NY, 10003","Hours":null,"Handicap Access...":null,"coordinate":[-73.989343,40.734727]},{"Name":"STARBUCKS","Category":"Coffee Shop","Address":"80 Delancey Street New York NY, 10002","Hours":null,"Handicap Access...":null,"coordinate":[-73.989901,40.719344]},{"Name":"STARBUCKS","Category":"Coffee Shop","Address":"13~25 Astor Place New York NY, 10003","Hours":null,"Handicap Access...":null,"coordinate":[-73.99247,40.73011]},{"Name":"STARBUCKS","Category":"Coffee Shop","Address":"682 9th Avenue New York NY, 10036","Hours":null,"Handicap Access...":null,"coordinate":[-73.990025,40.761625]},{"Name":"STARBUCKS","Category":"Coffee Shop","Address":"462 7th Avenue New York NY, 10018","Hours":null,"Handicap Access...":null,"coordinate":[-73.990334,40.75199]},{"Name":"STARBUCKS","Category":"Coffee Shop","Address":"41 Union Square West Manhattan NY, 10003","Hours":null,"Handicap Access...":null,"coordinate":[-73.990572,40.737187]},{"Name":"STARBUCKS","Category":"Coffee Shop","Address":"600 Eighth Ave. New York NY, 10018","Hours":null,"Handicap Access...":null,"coordinate":[-73.990911,40.755375]},{"Name":"STARBUCKS","Category":"Coffee Shop","Address":"776 Avenue of the Americas New York NY, 10001","Hours":null,"Handicap Access...":null,"coordinate":[-73.990873,40.74494]},{"Name":"STARBUCKS","Category":"Coffee Shop","Address":"370 7th Avenue New York NY, 10001","Hours":null,"Handicap Access...":null,"coordinate":[-73.992216,40.749914]},{"Name":"STARBUCKS","Category":"Coffee Shop","Address":"593 Ninth Ave New York NY, 10036","Hours":null,"Handicap Access...":null,"coordinate":[-73.99247,40.75897]},{"Name":"STARBUCKS","Category":"Coffee Shop","Address":"1 Penn Plaza New York NY, 10119","Hours":null,"Handicap Access...":null,"coordinate":[-73.992756,40.7514445]},{"Name":"STARBUCKS","Category":"Coffee Shop","Address":"684 Avenue of the Americas New York NY, 10010","Hours":null,"Handicap Access...":null,"coordinate":[-73.993211,40.741837]},{"Name":"STARBUCKS","Category":"Coffee Shop","Address":"555 W. 42ND STREET New York NY, 10036","Hours":null,"Handicap Access...":null,"coordinate":[-73.997597,40.760815]},{"Name":"STARBUCKS","Category":"Coffee Shop","Address":"510 Sixth Avenue New York NY, 10011","Hours":null,"Handicap Access...":null,"coordinate":[-73.996802,40.736819]},{"Name":"STARBUCKS","Category":"Coffee Shop","Address":"255 Eighth Ave New York NY, 10011","Hours":null,"Handicap Access...":null,"coordinate":[-73.99881,40.74504]},{"Name":"STARBUCKS","Category":"Coffee Shop","Address":"450 W. 33rd Street New York NY, 10001","Hours":null,"Handicap Access...":null,"coordinate":[-73.999476,40.753386]},{"Name":"STARBUCKS","Category":"Coffee Shop","Address":"378 6th Avenue New York NY, 10011","Hours":null,"Handicap Access...":null,"coordinate":[-73.99978,40.73302]},{"Name":"STARBUCKS","Category":"Coffee Shop","Address":"93 Greenwich Avenue New York NY, 10014","Hours":null,"Handicap Access...":null,"coordinate":[-74.001724,40.737314]},{"Name":"Fao Schwarz","Category":"Other","Address":"near 59th St & 5 Ave.","Hours":"store open hours","Handicap Access...":"No","coordinate":[78.4450353,17.4414509]},{"Name":"STARBUCKS","Category":"Coffee Shop","Address":"655 W 34th St New York NY, 10001","Hours":null,"Handicap Access...":null,"coordinate":[-74.00348,40.75652]},{"Name":"STARBUCKS","Category":"Coffee Shop","Address":"76 9th Ave New York NY, 10001","Hours":null,"Handicap Access...":null,"coordinate":[-74.004446,40.741875]},{"Name":"STARBUCKS","Category":"Coffee Shop","Address":"3 New York Plaza New York NY, 10003","Hours":null,"Handicap Access...":null,"coordinate":[-74.012377,40.702225]},{"Name":"STARBUCKS","Category":"Coffee Shop","Address":"1 Battery Park Plaza New York NY, 10004","Hours":null,"Handicap Access...":null,"coordinate":[-74.014183,40.70337]},{"Name":"STARBUCKS","Category":"Coffee Shop","Address":"444 E. 80th St New York NY, 10021","Hours":null,"Handicap Access...":null,"coordinate":[-73.949986,40.772098]},{"Name":"Great Hill","Category":"Public","Address":"W. 106th St.","Hours":"Park Hours (Closed in Winter)","Handicap Access...":"No","coordinate":[-81.75976,41.449865]},{"Name":"Starbucks","Category":"Coffee Shop","Address":"21 East 8th Street","Hours":"Starbucks Hours","Handicap Access...":"No","coordinate":[-82.00998,40.12159]},{"Name":"Starbucks","Category":"Coffee Shop","Address":"150 Varick Street","Hours":"Starbucks Hours","Handicap Access...":"No","coordinate":[-74.005783,40.725887]},{"Name":"Starbucks","Category":"Coffee Shop","Address":"1117 Lexington Ave.","Hours":"Starbucks Hours","Handicap Access...":"No","coordinate":[-84.23125,39.768005]},{"Name":"Starbucks","Category":"Coffee Shop","Address":"1166 Avenue of the Americas","Hours":"Starbucks Hours","Handicap Access...":"No","coordinate":[-73.982236,40.757019]},{"Name":"STARBUCKS","Category":"Coffee Shop","Address":"1445 First Avenue New York NY, 10021","Hours":null,"Handicap Access...":null,"coordinate":[-73.954702,40.770128]},{"Name":"Loeb Boathouse","Category":"Other","Address":"E. 74th at East Drive","Hours":"Restaurant Hours","Handicap Access...":"Yes","coordinate":[-101.82644,33.52772]},{"Name":"STARBUCKS","Category":"Coffee Shop","Address":"1290 Third Avenue New York NY, 10021","Hours":null,"Handicap Access...":null,"coordinate":[-73.959761,40.771289]},{"Name":"STARBUCKS","Category":"Coffee Shop","Address":"1102 1st Ave New York NY, 10021","Hours":null,"Handicap Access...":null,"coordinate":[-73.961076,40.760439]},{"Name":"STARBUCKS","Category":"Coffee Shop","Address":"233 Broadway Manhattan NY, 10007","Hours":null,"Handicap Access...":"No","coordinate":[-74.00809,40.71218]},{"Name":"STARBUCKS","Category":"Coffee Shop","Address":"100 Church Street New York NY, 10007","Hours":null,"Handicap Access...":"No","coordinate":[-74.009825,40.71329]},{"Name":"STARBUCKS","Category":"Coffee Shop","Address":"38 Park Row New York NY, 10038","Hours":null,"Handicap Access...":"No","coordinate":[-74.006601,40.711652]},{"Name":"STARBUCKS","Category":"Coffee Shop","Address":"195 Broadway New York NY, 10007","Hours":null,"Handicap Access...":"No","coordinate":[-74.0104635,40.7114695]},{"Name":"STARBUCKS","Category":"Coffee Shop","Address":"165 Broadway New York NY, 10006","Hours":null,"Handicap Access...":"No","coordinate":[-74.010694,40.709658]},{"Name":"STARBUCKS","Category":"Coffee Shop","Address":"100 William Street New York NY, 10038","Hours":null,"Handicap Access...":"No","coordinate":[-74.007296,40.708556]},{"Name":"STARBUCKS","Category":"Coffee Shop","Address":"55 Liberty Street New York NY, 10005","Hours":null,"Handicap Access...":"No","coordinate":[-74.00954,40.70879]},{"Name":"STARBUCKS","Category":"Coffee Shop","Address":"250 Vesey Street New York NY, 10281","Hours":null,"Handicap Access...":"No","coordinate":[-74.015969,40.714015]},{"Name":"STARBUCKS","Category":"Coffee Shop","Address":"115 Broadway New York NY, 10006","Hours":null,"Handicap Access...":"No","coordinate":[-74.011249,40.708838]},{"Name":"STARBUCKS","Category":"Coffee Shop","Address":"45 Wall Street New York NY, 10005","Hours":null,"Handicap Access...":"No","coordinate":[-74.009884,40.706323]},{"Name":"STARBUCKS","Category":"Coffee Shop","Address":"80 Pine Street New York NY, 10005","Hours":null,"Handicap Access...":"No","coordinate":[-74.006818,40.706152]},{"Name":"STARBUCKS","Category":"Coffee Shop","Address":"55 Broad Street New York NY, 10004","Hours":null,"Handicap Access...":"No","coordinate":[-74.011089,40.705307]},{"Name":"STARBUCKS","Category":"Coffee Shop","Address":"2 Broadway Manhattan NY, 10004","Hours":null,"Handicap Access...":"No","coordinate":[-74.013056,40.704435]},{"Name":"STARBUCKS","Category":"Coffee Shop","Address":"230 Park Avenue New York NY, 10169","Hours":null,"Handicap Access...":null,"coordinate":[-73.976072,40.754377]},{"Name":"STARBUCKS","Category":"Coffee Shop","Address":"400 Madison Avenue New York NY, 10016","Hours":null,"Handicap Access...":null,"coordinate":[-73.976985,40.756315]},{"Name":"STARBUCKS","Category":"Coffee Shop","Address":"585 2nd Avenue New York NY, 10016","Hours":null,"Handicap Access...":null,"coordinate":[-73.976839,40.743815]},{"Name":"STARBUCKS","Category":"Coffee Shop","Address":"267~275 Columbus Ave New York NY, 10023","Hours":null,"Handicap Access...":null,"coordinate":[-73.97836,40.77782]},{"Name":"STARBUCKS","Category":"Coffee Shop","Address":"338 Columbus Avenue New York NY, 10023","Hours":null,"Handicap Access...":null,"coordinate":[-73.977153,40.779972]},{"Name":"STARBUCKS","Category":"Coffee Shop","Address":"1380 Sixth Avenue New York NY, 10019","Hours":null,"Handicap Access...":null,"coordinate":[-73.977419,40.763675]},{"Name":"STARBUCKS","Category":"Coffee Shop","Address":"125 Park Ave New York NY, 10017","Hours":null,"Handicap Access...":null,"coordinate":[-73.938623,40.805147]},{"Name":"STARBUCKS","Category":"Coffee Shop","Address":"120 W. 56th Street New York NY, 10019","Hours":null,"Handicap Access...":null,"coordinate":[-73.978974,40.763841]},{"Name":"STARBUCKS","Category":"Coffee Shop","Address":"142 W. 57th Street New York NY, 10019","Hours":null,"Handicap Access...":null,"coordinate":[-73.979143,40.764883]},{"Name":"STARBUCKS","Category":"Coffee Shop","Address":"335 Madison Avenue New York NY, 10017","Hours":null,"Handicap Access...":null,"coordinate":[-73.979323,40.753227]},{"Name":"STARBUCKS","Category":"Coffee Shop","Address":"1345 6th Ave New York NY, 10105","Hours":null,"Handicap Access...":null,"coordinate":[-73.978832,40.76292]},{"Name":"STARBUCKS","Category":"Coffee Shop","Address":"575 Fifth Avenue New York NY, 10036","Hours":null,"Handicap Access...":null,"coordinate":[-73.97846,40.75661]},{"Name":"STARBUCKS","Category":"Coffee Shop","Address":"1320 Avenue of the Americas Manhattan NY, 10019","Hours":null,"Handicap Access...":null,"coordinate":[-73.978591,40.761932]},{"Name":"STARBUCKS","Category":"Coffee Shop","Address":"330 Madison Ave New York NY, 10017","Hours":null,"Handicap Access...":null,"coordinate":[-73.979334,40.753245]},{"Name":"STARBUCKS","Category":"Coffee Shop","Address":"90 Park Ave New York NY, 10016","Hours":null,"Handicap Access...":null,"coordinate":[-73.979373,40.750782]},{"Name":"STARBUCKS","Category":"Coffee Shop","Address":"30 Rockefeller Plaza New York NY, 10020","Hours":null,"Handicap Access...":null,"coordinate":[-73.97936,40.75934]},{"Name":"STARBUCKS","Category":"Coffee Shop","Address":"545 Fifth Ave. New York NY, 10017","Hours":null,"Handicap Access...":null,"coordinate":[-73.979264,40.755064]},{"Name":"Heckscher House","Category":"Public","Address":"Heckscher Playground, 62nd St. Mid~Park","Hours":"during park open hour","Handicap Access...":"No","coordinate":[-73.89348,40.70039]},{"Name":"STARBUCKS","Category":"Coffee Shop","Address":"1290 6th Ave New York NY, 10104","Hours":null,"Handicap Access...":null,"coordinate":[-73.97803,40.76042]},{"Name":"STARBUCKS","Category":"Coffee Shop","Address":"295 Madison Avenue New York NY, 10017","Hours":null,"Handicap Access...":null,"coordinate":[-73.97949,40.751825]},{"Name":"STARBUCKS","Category":"Coffee Shop","Address":"870 7th Avenue New York NY, 10019","Hours":null,"Handicap Access...":null,"coordinate":[-73.981046,40.764659]},{"Name":"STARBUCKS","Category":"Coffee Shop","Address":"286 First Avenue New York NY, 10003","Hours":null,"Handicap Access...":null,"coordinate":[-73.980954,40.73302]},{"Name":"Wollman Skating Rink","Category":"Public","Address":"E. 63rd near East Drive","Hours":"Park Hours (Fee Required)","Handicap Access...":"No","coordinate":[-101.780985,33.53737]},{"Name":"STARBUCKS","Category":"Coffee Shop","Address":"2140 Broadway New York NY, 10023","Hours":null,"Handicap Access...":null,"coordinate":[-73.981,40.781059]},{"Name":"Delacorte Theatre","Category":"Public","Address":"W. 81st at Turtle Pond","Hours":"Park Hours","Handicap Access...":"Yes","coordinate":[13.369642,47.996942]},{"Name":"STARBUCKS","Category":"Coffee Shop","Address":"156 W 52nd St New York NY, 10019","Hours":null,"Handicap Access...":null,"coordinate":[-73.98186,40.761985]},{"Name":"Standford Hotel","Category":"Hotel","Address":"32nd St. Between 5th and 6th Aves.","Hours":"24 Hours","Handicap Access...":"Yes","coordinate":[-122.4498759,47.2312363]},{"Name":"Rockfeller Center Lower Floor","Category":"Public","Address":"49st St. between 5th and 6th Aves.","Hours":"Most of time","Handicap Access...":"No","coordinate":[-122.486991,47.25616]},{"Name":"Starbucks","Category":"Coffee Shop","Address":"750 6th Avenue","Hours":"Starbucks Hours","Handicap Access...":"No","coordinate":[-116.973039,51.297464]},{"Name":"STARBUCKS","Category":"Coffee Shop","Address":"3 Park Avenue New York NY, 10017","Hours":null,"Handicap Access...":null,"coordinate":[-73.978424,40.750348]},{"Name":"Starbucks","Category":"Coffee Shop","Address":"395 Third Avenue","Hours":"Starbucks Hours","Handicap Access...":"No","coordinate":[-84.367803,46.533762]},{"Name":"STARBUCKS","Category":"Coffee Shop","Address":"296~300 Third Avenue New York NY, 10010","Hours":null,"Handicap Access...":null,"coordinate":[-73.98347,40.73858]},{"Name":"BARNES & NOBLE","Category":"Book Store","Address":"396 Avenue of the Americas, New York, NY 10011","Hours":null,"Handicap Access...":"No","coordinate":[-73.999404,40.73336]},{"Name":"BARNES & NOBLE","Category":"Book Store","Address":"160 E 54th St, New York, NY 10022","Hours":null,"Handicap Access...":"No","coordinate":[-73.96955,40.75848]},{"Name":"BARNES & NOBLE","Category":"Book Store","Address":"33 E 17th St, New York, NY 10003","Hours":null,"Handicap Access...":"Yes","coordinate":[-73.991035,40.73727]},{"Name":"BARNES & NOBLE","Category":"Book Store","Address":"4 Astor pl, New York, NY 10003","Hours":null,"Handicap Access...":"Yes","coordinate":[-73.992406,40.729866]},{"Name":"BARNES & NOBLE","Category":"Book Store","Address":"675 Avenue of the Americas, New York, NY 10010","Hours":null,"Handicap Access...":"No","coordinate":[-73.993515,40.742045]},{"Name":"BARNES & NOBLE","Category":"Book Store","Address":"1972 Broadway, New York, NY 10023","Hours":null,"Handicap Access...":"No","coordinate":[-73.98193,40.773941]},{"Name":"STARBUCKS","Category":"Coffee Shop","Address":"125 Chambers Street New York NY, 10007","Hours":null,"Handicap Access...":"No","coordinate":[-74.00887,40.71546]},{"Name":"Starbucks","Category":"Coffee Shop","Address":"1449 Second Avenue","Hours":"Starbucks Hours","Handicap Access...":"No","coordinate":[-81.294897,44.578358]},{"Name":"Starbucks","Category":"Coffee Shop","Address":"51 Astor Place","Hours":"Starbucks Hours","Handicap Access...":"No","coordinate":[-73.990318,40.730188]},{"Name":"Grand Central Station Public Restroom","Category":"Public","Address":"Near 42nd St and Park Ave","Hours":"most of times","Handicap Access...":"Yes","coordinate":[-77.259097,18.32272]},{"Name":"STARBUCKS","Category":"Coffee Shop","Address":"1185 Sixth Avenue New York NY, 10036","Hours":null,"Handicap Access...":null,"coordinate":[-73.982321,40.757879]},{"Name":"STARBUCKS","Category":"Coffee Shop","Address":"1710 Broadway New York NY, 10019","Hours":null,"Handicap Access...":null,"coordinate":[-73.982097,40.764222]},{"Name":"STARBUCKS","Category":"Coffee Shop","Address":"2045 Broadway New York NY, 10023","Hours":null,"Handicap Access...":null,"coordinate":[-73.98259,40.77779]},{"Name":"STARBUCKS","Category":"Coffee Shop","Address":"1841 Broadway New York NY, 10023","Hours":null,"Handicap Access...":null,"coordinate":[-73.982335,40.769063]},{"Name":"STARBUCKS","Category":"Coffee Shop","Address":"200 Madison Avenue New York NY, 10016","Hours":null,"Handicap Access...":null,"coordinate":[-73.982225,40.749026]},{"Name":"STARBUCKS","Category":"Coffee Shop","Address":"1675 Broadway Manhattan NY, 10019","Hours":null,"Handicap Access...":null,"coordinate":[-73.983463,40.762951]},{"Name":"STARBUCKS","Category":"Coffee Shop","Address":"322 West 57th Street New York NY, 10019","Hours":null,"Handicap Access...":null,"coordinate":[-73.984022,40.767187]},{"Name":"Carl Schurz Park","Category":"Public","Address":"87th Street and East End Avenue","Hours":null,"Handicap Access...":"No","coordinate":[-79.319735,43.670956]},{"Name":"Four Seasons Hotel New York","Category":"Hotel","Address":"57 E. 57th St.","Hours":"Hotel Hours","Handicap Access...":"No","coordinate":[-81.64962,41.4511]},{"Name":"Rockefeller Center","Category":"Public","Address":"630 5th Ave.","Hours":"Mall Hours","Handicap Access...":"No","coordinate":[-73.977444,40.759503]},{"Name":"SAKS Fifth Avenue","Category":"Public","Address":"611 Fifth Avenue","Hours":"Store Hours","Handicap Access...":"No","coordinate":[-99.514844,51.06004]},{"Name":"Banana RePublic","Category":"Other","Address":"17 W 34th St.","Hours":"Mon. thru Fri. 10 a.m. to 9 p.m., Sat and Sun 11 a...","Handicap Access...":"No","coordinate":[-87.63692,41.47006]},{"Name":"Pietrasanta","Category":"Other","Address":"683 Ninth Avenue (47th Street)","Hours":"Normal Business","Handicap Access...":"No","coordinate":[-122.467285,37.77557]},{"Name":"Pearl River Market","Category":"Other","Address":"477 Broadway (bet. Grand and Broome)","Hours":"10:00 a.m. to 7:20 p.m.","Handicap Access...":"No","coordinate":[-78.799326,38.613304]},{"Name":"NYC Police Station (28TH PRECINCT)","Category":"Other","Address":"2271~89 Frederick Douglass Blvd NY 10027","Hours":null,"Handicap Access...":null,"coordinate":[-73.95249,40.80856]},{"Name":"NYC Police Station (30TH PRECINCT)","Category":"Other","Address":"451 W 151 St NY 10031","Hours":null,"Handicap Access...":null,"coordinate":[-73.943789,40.828793]},{"Name":"Jekyll and Hyde Restaurant","Category":"Other","Address":"91 7 th Ave South New York","Hours":null,"Handicap Access...":"Yes","coordinate":[-74.0059945,40.7127492]},{"Name":"NYC Police Station (26TH PRECINCT)","Category":"Other","Address":"520 W 126 St NY 10027","Hours":null,"Handicap Access...":null,"coordinate":[-73.95641,40.81474]},{"Name":"NYC Police Station (19TH PRECINCT)","Category":"Other","Address":"153 E 67 St NY 10021","Hours":null,"Handicap Access...":null,"coordinate":[-73.963816,40.767093]},{"Name":"NYC Police Station (14TH PRECINCT MID~TOWN SOUTH)","Category":"Other","Address":"357 W 35 St NY 10001","Hours":null,"Handicap Access...":null,"coordinate":[-73.995008,40.75383]},{"Name":"Barneys New York","Category":"Public","Address":"660 Madison Ave.","Hours":"Store Hours","Handicap Access...":"No","coordinate":[-73.970713,40.764653]},{"Name":"Bloomingdales","Category":"Public","Address":"1000 3rd Ave.","Hours":"Store Hours","Handicap Access...":"No","coordinate":[-75.698458,45.398898]},{"Name":"Old Navy","Category":"Public","Address":"503~511 Broadway","Hours":null,"Handicap Access...":"No","coordinate":[-84.50654,38.04501]},{"Name":"St. Pauls Chapel","Category":"Other","Address":"Church St. (across from WTC Path Station)","Hours":null,"Handicap Access...":"No","coordinate":[-92.215126,30.402978]},{"Name":"Borders","Category":"Book Store","Address":"100 Broadway","Hours":"7:30am to 8pm","Handicap Access...":"No","coordinate":[-74.011416,40.708251]},{"Name":"Whole Foods Market","Category":"Other","Address":"4 Union Square South","Hours":"8am to 10pm","Handicap Access...":"No","coordinate":[-73.991512,40.734636]},{"Name":"NYC Police Station (MIDTOWN NORTH)","Category":"Other","Address":"306 W 54 St NY 10019","Hours":null,"Handicap Access...":null,"coordinate":[-73.98507,40.764975]},{"Name":"NYC Police Station (1ST PRECINCT)","Category":"Other","Address":"16 Ericsson Place NY 10013","Hours":null,"Handicap Access...":null,"coordinate":[-74.007015,40.7203]},{"Name":"NYC Police Station (23RD PRECINCT)","Category":"Other","Address":"162 E 102 St NY 10029","Hours":null,"Handicap Access...":null,"coordinate":[-73.94767,40.789305]},{"Name":"NYC Police Station (33RD PRECINCT)","Category":"Other","Address":"2207 Amsterdam Ave NY 10032","Hours":null,"Handicap Access...":null,"coordinate":[-73.935746,40.840738]},{"Name":"NYC Police Station (CENTRAL PARK PRECINCT)","Category":"Other","Address":"2 W 86 St NY 10024","Hours":null,"Handicap Access...":null,"coordinate":[-73.969803,40.785218]},{"Name":"NYC Police Station (7TH PRECINCT)","Category":"Other","Address":"19 Pitt St NY 10002","Hours":null,"Handicap Access...":null,"coordinate":[-73.98377,40.71629]},{"Name":"NYC Police Station (13TH PRECINCT)","Category":"Other","Address":"230 E 21 St NY 10010","Hours":null,"Handicap Access...":null,"coordinate":[-73.98276,40.73688]},{"Name":"NYC Police Station (5TH PRECINCT)","Category":"Other","Address":"19 Elizabeth St NY 10013","Hours":null,"Handicap Access...":null,"coordinate":[-73.997422,40.716164]},{"Name":"NYC Police Station (25TH PRECINCT)","Category":"Other","Address":"120 E 119 St NY 10035","Hours":null,"Handicap Access...":null,"coordinate":[-73.941083,40.800723]},{"Name":"NYC Police Station (6TH PRECINCT)","Category":"Other","Address":"233 W 10 St NY 10014","Hours":null,"Handicap Access...":null,"coordinate":[-74.005418,40.733966]},{"Name":"NYC Police Station (32ND PRECINCT)","Category":"Other","Address":"250 W 135 St NY 10030","Hours":null,"Handicap Access...":null,"coordinate":[-73.9453,40.81581]},{"Name":"NYC Police Station (9TH PRECINCT)","Category":"Other","Address":"321 E 5 St NY 10003","Hours":null,"Handicap Access...":null,"coordinate":[-73.987866,40.726488]},{"Name":"NYC Police Station (34TH PRECINCT)","Category":"Other","Address":"4295 Broadway NY 10033","Hours":null,"Handicap Access...":null,"coordinate":[-73.93534,40.851492]},{"Name":"Starbucks","Category":"Coffee Shop","Address":"4001 Broadway","Hours":"Daily 5:30am to 12am","Handicap Access...":"No","coordinate":[-82.72941,41.02685]},{"Name":"Crate and Barrel","Category":"Public","Address":"611 Broadway (NW corner of Houston)","Hours":null,"Handicap Access...":"No","coordinate":[-75.773525,42.629513]},{"Name":"Ancient Playground","Category":"Public","Address":"E. 85 St. off 5th Avenue.","Hours":"Park Hours","Handicap Access...":"No","coordinate":[-73.745819,40.9487265]},{"Name":"Barnes & Noble","Category":"Book Store","Address":"267 7th Avenue","Hours":"9 to 11 Every Day","Handicap Access...":"Yes","coordinate":[150.763683,-33.710811]},{"Name":"NYC Police Station (10TH PRECINCT)","Category":"Other","Address":"230 W 20 St NY 10011","Hours":null,"Handicap Access...":null,"coordinate":[-73.998613,40.742737]},{"Name":"NYC Police Station (24TH PRECINCT)","Category":"Other","Address":"151 W 100 St NY 10025","Hours":null,"Handicap Access...":null,"coordinate":[-73.967345,40.796441]},{"Name":"NYC Police Station (17TH PRECINCT)","Category":"Other","Address":"167 E 51 St NY 10022","Hours":null,"Handicap Access...":null,"coordinate":[-73.970798,40.756762]},{"Name":"NYC Police Station (20TH PRECINCT)","Category":"Other","Address":"120 W 82 St NY 10024","Hours":null,"Handicap Access...":null,"coordinate":[-73.975036,40.784134]},{"Name":"South Street Seaport Mall","Category":"Public","Address":"19 Fulton St.","Hours":null,"Handicap Access...":"No","coordinate":[153.090509,-27.566191]},{"Name":"World Financial Center, Winter Garden","Category":"Public","Address":"West St.","Hours":null,"Handicap Access...":"No","coordinate":[5.273805,51.693787]},{"Name":"Housing Works Used Book Cafe","Category":"Book Store","Address":"126 Crosby Street","Hours":"M to F, 10am to 9pm; Sat, noon to 9pm, Sun, noon t...","Handicap Access...":"No","coordinate":[131.010235,-12.510233]},{"Name":"Barnes & Noble Midtown @ Rockefeller Center","Category":"Book Store","Address":"600 5th Avenue","Hours":"Sun 10~8, Mon~Fri 8~9, Sat 9~8","Handicap Access...":"No","coordinate":[-73.978687,40.757677]},{"Name":"Starbucks","Category":"Coffee Shop","Address":"6423 18th Ave Brooklyn, NY 11204","Hours":"Business Hours","Handicap Access...":"No","coordinate":[-73.989846,40.619143]},{"Name":"Long Island Railroad","Category":"Public","Address":"Penn Station","Hours":"24 hours","Handicap Access...":"Yes","coordinate":[-79.99195175,40.4440385]},{"Name":"Josephia Restaurants","Category":"Other","Address":"Columbus Ave off W 63rd St","Hours":null,"Handicap Access...":"Yes","coordinate":[-97.0896385,31.80356775]},{"Name":"Starbucks","Category":"Coffee Shop","Address":"Columbus Ave off Harkness Plaza","Hours":"12 hours","Handicap Access...":"No","coordinate":[-83.900313,43.601697]},{"Name":"Washington Square Park Bathrooms","Category":"Public","Address":"Washington Square Park , West 4th St. and Sullivan...","Hours":"7am~6pm","Handicap Access...":"Yes","coordinate":[-120.0942925065,48.0250054263]},{"Name":"Hotel Pennsylvania","Category":"Hotel","Address":"401 7th Avenue, NY","Hours":"Hotel Open Hours","Handicap Access...":"Yes","coordinate":[-73.990817,40.749792]},{"Name":"Crown Plaza Hotel","Category":"Hotel","Address":"1605 Broadway","Hours":"24 hours","Handicap Access...":"Yes","coordinate":[-89.333886,48.354738]},{"Name":"STARBUCKS","Category":"Coffee Shop","Address":"1656 Broadway New York NY, 10019","Hours":null,"Handicap Access...":null,"coordinate":[-73.983309,40.762092]},{"Name":"Cosi","Category":"Coffee Shop","Address":"Paramount Plaza","Hours":"Open Hours","Handicap Access...":"No","coordinate":[-73.984628,40.7620505]},{"Name":"Starbucks","Category":"Coffee Shop","Address":"Broadway & 48 St","Hours":"Open Hours","Handicap Access...":"No","coordinate":[-79.209079,43.220846]},{"Name":"M&M Store","Category":"Other","Address":"Broadway and W 48th St.","Hours":"Open Hours","Handicap Access...":"No","coordinate":[-74.1033187,40.6815897]},{"Name":"Europa Cafe","Category":"Coffee Shop","Address":"1177 Ave. of the Americas","Hours":"Open Hours","Handicap Access...":"No","coordinate":[-73.9826735,40.757138]},{"Name":"Pret a Manger","Category":"Coffee Shop","Address":"1200 Avenue of the Americas","Hours":"Open Hours","Handicap Access...":"No","coordinate":[-73.981459,40.75809]},{"Name":"Garage","Category":"Other","Address":"7th Ave and Grove St","Hours":"Open Hours","Handicap Access...":"Yes","coordinate":[-92.030583,45.5352342]},{"Name":"Bleecker Street Pizza","Category":"Other","Address":"Bleecker St and 7th Ave","Hours":"Open Hours","Handicap Access...":"No","coordinate":[-74.0035825,40.7322539]},{"Name":"Cafe Angelique","Category":"Coffee Shop","Address":"Grove St & Bleecker St","Hours":"Open Hours","Handicap Access...":"No","coordinate":[-74.0039756,40.732925]},{"Name":"St. Vicents Hospital","Category":"Other","Address":"7th Ave S and W 11th St","Hours":"24 Hours","Handicap Access...":"Yes","coordinate":[-74.0011098,40.7365975]},{"Name":"International Hair","Category":"Other","Address":"160 West 66 street","Hours":null,"Handicap Access...":"No","coordinate":[-87.627997,41.774753]},{"Name":"Josephina Restaurant","Category":"Other","Address":"1900 Broadway NY","Hours":null,"Handicap Access...":"Yes","coordinate":[-73.981722,40.771625]},{"Name":"Cornelia Street Cafe","Category":"Coffee Shop","Address":"29 Cornelia St","Hours":null,"Handicap Access...":"No","coordinate":[152.735114,-27.628033]},{"Name":"Melissa Gourmet","Category":"Other","Address":"62 West 62nd st. NY","Hours":null,"Handicap Access...":"No","coordinate":[-73.982596,40.770533]},{"Name":"Slane","Category":"Other","Address":"102 MacDougal St.","Hours":"Store Hours","Handicap Access...":"Yes","coordinate":[-73.91696,40.67948]},{"Name":"Sarahs Bagel Cafe","Category":"Coffee Shop","Address":"271 Bleeker St","Hours":null,"Handicap Access...":"No","coordinate":[-88.399149,43.060144]},{"Name":"Starbucks","Category":"Coffee Shop","Address":"63 W. 63rd st. NY","Hours":null,"Handicap Access...":"No","coordinate":[-73.982765,40.771652]},{"Name":"Mercadito Grove","Category":"Other","Address":"100 7th Ave S New York","Hours":null,"Handicap Access...":"Yes","coordinate":[-74.003443,40.732927]},{"Name":"Karavas","Category":"Other","Address":"108 7th Ave S","Hours":null,"Handicap Access...":"No","coordinate":[138.624459,-34.899912]},{"Name":"Burritoville","Category":"Other","Address":"298 Bleeker St.","Hours":null,"Handicap Access...":"No","coordinate":[-74.385974,39.941192]},{"Name":"GROME","Category":"Other","Address":"231 Bleeker St.","Hours":null,"Handicap Access...":"Yes","coordinate":[-74.38334,39.94043]},{"Name":"Market Place Cafe","Category":"Coffee Shop","Address":"394 6th Ave","Hours":null,"Handicap Access...":"Yes","coordinate":[138.660153,-35.534474]},{"Name":"Lennys NYC","Category":"Coffee Shop","Address":"48th Street (between 5th and 6th)","Hours":"M to Thur 7am to 9pm, Fri 7am to 8pm, Sat to Sun 8...","Handicap Access...":"No","coordinate":[-78.031271,34.834425]},{"Name":"Starbucks Below Rockefeller Center","Category":"Coffee Shop","Address":"49th St. and 6th Ave Subway entrance","Hours":null,"Handicap Access...":"Yes","coordinate":[-74.007535,40.6443388]},{"Name":"Au Croissant and Gourmet","Category":"Coffee Shop","Address":"51 W 51st St","Hours":null,"Handicap Access...":"Yes","coordinate":[-81.72125,41.47021]},{"Name":"Starbucks","Category":"Coffee Shop","Address":"58th St. next to 8th ave","Hours":null,"Handicap Access...":"No","coordinate":[-82.69415,27.76201]},{"Name":"Subway","Category":"Other","Address":"Mid~West 58th St","Hours":null,"Handicap Access...":"Yes","coordinate":[-95.511909,29.738065]},{"Name":"Europa Cafe","Category":"Coffee Shop","Address":"370 W 58th St","Hours":null,"Handicap Access...":"Yes","coordinate":[-73.985057,40.768406]},{"Name":"Starbucks","Category":"Coffee Shop","Address":"320 W 57th St","Hours":"M to F 5:30am to 11pm, Sat 6am to 11pm, Sun 6am to...","Handicap Access...":"Yes","coordinate":[-73.984274,40.767136]},{"Name":"FedEx Kinkos","Category":"Other","Address":"301 W 56th St","Hours":null,"Handicap Access...":"Yes","coordinate":[-73.983528,40.766298]},{"Name":"Hale and Hearty Soups","Category":"Coffee Shop","Address":"927 8th Ave","Hours":"M to F 10:30am to 9pm, S to Sun 11am to 8pm","Handicap Access...":"Yes","coordinate":[-122.93057,49.212809]},{"Name":"The Bread Factory Cafe","Category":"Coffee Shop","Address":"935 W 8th Ave","Hours":null,"Handicap Access...":"No","coordinate":[-88.561565,44.011035]},{"Name":"Universal News","Category":"Book Store","Address":"4 Columbus Circle","Hours":null,"Handicap Access...":"No","coordinate":[-70.91968,43.400645]},{"Name":"Associated Supermarket","Category":"Other","Address":"Corner of LaGaurdia and Bleecker St.","Hours":"Store hours","Handicap Access...":"No","coordinate":[-92.85109,43.5743]},{"Name":"Cafe Amore","Category":"Other","Address":"6th Ave and W. 4th St.","Hours":"Shop hours","Handicap Access...":"No","coordinate":[-89.696251,41.7779313]},{"Name":"Public Restroom","Category":"Public","Address":"Madison Sq Park","Hours":null,"Handicap Access...":"Yes","coordinate":[-73.986847,40.741795]},{"Name":"Bens Pizzaria","Category":"Other","Address":"Corner of MacDougal St. and W. 3rd St.","Hours":null,"Handicap Access...":"No","coordinate":[-86.94222,33.800381]},{"Name":"Coldstone Creamery","Category":"Other","Address":"348 6th Ave","Hours":"12pm to 10pm","Handicap Access...":"Yes","coordinate":[-84.363993,46.532501]},{"Name":"Prospect Park Bandshell","Category":"Public","Address":"ninth street playground ~ bandshell building","Hours":"park hours","Handicap Access...":"Yes","coordinate":[-105.27277,40.009904]},{"Name":"Old Stone House in JJ Byrne park","Category":"Public","Address":"336 3rd St between 3d and 4th streets in the park","Hours":"park hours","Handicap Access...":"Yes","coordinate":[88.36295,22.800733]},{"Name":"Bed Bath and Beyond","Category":"Public","Address":"410 E. 61rst St.","Hours":"Business Hours","Handicap Access...":"No","coordinate":[-86.04631,40.41076]},{"Name":"Bed Bath and Beyond","Category":"Public","Address":"620 6th Ave.","Hours":"Normal Business","Handicap Access...":"No","coordinate":[-97.99666,49.93433]},{"Name":"Bodum","Category":"Public","Address":"413 W 14th St","Hours":"Normal Business","Handicap Access...":"No","coordinate":[-82.172491,41.457]},{"Name":"McDonalds","Category":"Public","Address":"6 Water St.","Hours":"Normal Busines","Handicap Access...":"No","coordinate":[153.545423,-28.195506]},{"Name":"McDonalds","Category":"Other","Address":"7th Ave & 51 St.","Hours":"Open Hours","Handicap Access...":"No","coordinate":[138.653433,-34.908196]},{"Name":"Old Navy","Category":"Public","Address":"610 Avenue of the Americas","Hours":"Normal Business Hours","Handicap Access...":"No","coordinate":[-73.994924,40.739597]},{"Name":"STARBUCKS","Category":"Coffee Shop","Address":"4 Columbus Circle, New York, NY 10019","Hours":null,"Handicap Access...":"No","coordinate":[-73.982817,40.767389]},{"Name":"Staten Island Ferry","Category":"Public","Address":"Whitehall Street","Hours":"24 hours","Handicap Access...":"Yes","coordinate":[153.0669079167,-27.56935355]},{"Name":"Staten Island Ferry","Category":"Public","Address":"1 Bay Street","Hours":"24 hours","Handicap Access...":"Yes","coordinate":[167.955879,-29.057953]},{"Name":"St Vincents Hospital","Category":"Public","Address":"800 Castleton Avenue","Hours":"24 hours","Handicap Access...":"Yes","coordinate":[-74.10926,40.634495]},{"Name":"St Vincents Emergency Room Area","Category":"Public","Address":"900 castleton avenue","Hours":"24 hours","Handicap Access...":"Yes","coordinate":[-74.085442,40.635869]},{"Name":"Shoprite 2344","Category":"Public","Address":"2344 Richmond Avenue ~ Forest Avenue","Hours":"24 hours","Handicap Access...":"Yes","coordinate":[-122.223828,47.558901]},{"Name":"Kohls","Category":"Public","Address":"3000 Forest Avenue","Hours":"9 to 9","Handicap Access...":"Yes","coordinate":[-87.5802,44.16105]},{"Name":"Tribeca Bagels","Category":"Public","Address":"374 Canal Street","Hours":null,"Handicap Access...":"No","coordinate":[-111.894678,50.554652]},{"Name":"Pearl Paint","Category":"Public","Address":"308 Canal Street","Hours":"10:00 am to 7:00pm","Handicap Access...":"No","coordinate":[-81.4524,40.64713]},{"Name":"Broadway Cafe","Category":"Coffee Shop","Address":"401 Broadway Street","Hours":null,"Handicap Access...":"No","coordinate":[-75.83767,44.923762]},{"Name":"Pashmina Shopping Center","Category":"Other","Address":"265 Canal Street","Hours":null,"Handicap Access...":"No","coordinate":[-81.451965,40.647295]},{"Name":"Sbarro Pizza and Pasta","Category":"Public","Address":"298 Canal Street","Hours":"298 Canal Street","Handicap Access...":"No","coordinate":[-111.89392,50.557681]},{"Name":"Kings Leather","Category":"Public","Address":"267 Canal Street","Hours":null,"Handicap Access...":"No","coordinate":[-111.893926,50.557679]},{"Name":"Starbucks Coffee","Category":"Public","Address":"405 Broadway","Hours":"M to Th 5:30 to 10:00 Sat to Sun 6:30 to 10:00","Handicap Access...":"No","coordinate":[-79.265285,42.974819]},{"Name":"Canal Lucky Jewelry Center","Category":"Other","Address":"243 Canal Street","Hours":"10:00 am to 6:30 pm","Handicap Access...":"No","coordinate":[-82.459756,42.316432]},{"Name":"Teariffic","Category":"Public","Address":"51 Mott Street","Hours":null,"Handicap Access...":"No","coordinate":[-73.998624,40.715639]},{"Name":"Sun Sai Kai Restaurant","Category":"Other","Address":"220 Walker Street","Hours":null,"Handicap Access...":"No","coordinate":[152.686788,-25.521331]},{"Name":"Burger King","Category":"Public","Address":"273 Canal Street","Hours":"7:00 am to 11:00 pm","Handicap Access...":"No","coordinate":[-82.23691,39.46004]},{"Name":"Holiday Inn","Category":"Hotel","Address":"138 Lafeyette Street","Hours":null,"Handicap Access...":"No","coordinate":[-80.67063,41.118559]},{"Name":"Mc Donalds","Category":"Public","Address":"260 Canal Street","Hours":"24 HRS","Handicap Access...":"No","coordinate":[-111.892023,50.557312]},{"Name":"Lous Cafe","Category":"Coffee Shop","Address":"1301 6th Ave at 53rd Street New York 10019","Hours":"7 A.M. to 8 P.m.","Handicap Access...":"No","coordinate":[-73.97956,40.76127]},{"Name":"Cafe Metro","Category":"Other","Address":"839 7th Ave New York, NY 10019","Hours":"eatery","Handicap Access...":"No","coordinate":[-73.981285,40.763395]},{"Name":"Starbucks","Category":"Coffee Shop","Address":"1530 Broadway New York, NY 10036","Hours":"Mon to Thurs: 5:30 a.m. to Midnight; Sun to Sat: 6...","Handicap Access...":"No","coordinate":[-73.985287,40.757529]},{"Name":"Ellens Stardust Diner","Category":"Other","Address":"1650 Broadway # 1 NY, NY 10019","Hours":"Restaurant","Handicap Access...":"No","coordinate":null},{"Name":"Sheraton Manhattan Hotel","Category":"Hotel","Address":"790 7th Avenue 51st Street New York, New York 1001...","Hours":null,"Handicap Access...":"Yes","coordinate":[-73.982777,40.762136]},{"Name":"Sheraton New York Hotel & Towers","Category":"Hotel","Address":"811 7th Avenue 53rd Street New York, New York 1001...","Hours":null,"Handicap Access...":"Yes","coordinate":[-73.982416,40.762735]},{"Name":"Starbucks","Category":"Coffee Shop","Address":"W 53rd & Ave Americas, New York, NY\u00e2\u0080\u008e","Hours":null,"Handicap Access...":"No","coordinate":[-73.693935,40.744031]},{"Name":"Rays Pizza","Category":"Other","Address":"831 7th Ave, New York, NY\u00e2\u0080\u008e","Hours":"24 Hours","Handicap Access...":"No","coordinate":[-73.98147,40.76323]},{"Name":"Hilton Hotel","Category":"Hotel","Address":"1335 Avenue of the Americas (at 54th St ) , New Yo...","Hours":"24 Hours","Handicap Access...":"No","coordinate":[35.5999999,30.833333]},{"Name":"Famiglia Pizzeria","Category":"Other","Address":"686 8th Ave, New York, NY 10036","Hours":"9:00 am to 1:00 am ; Closed on Sundays","Handicap Access...":"No","coordinate":[-73.98896,40.75807]},{"Name":"McDonalds Restaurant","Category":"Other","Address":"688 8th Ave, New York, NY","Hours":null,"Handicap Access...":"No","coordinate":[-73.98899,40.75814]},{"Name":"Citicorp Center","Category":"Public","Address":"153 East 53rd St","Hours":"9AM to 6 PM","Handicap Access...":"No","coordinate":[-73.972064,40.759061]},{"Name":"Babies R Us","Category":"Public","Address":"24~30 Union Square East corner 15th St","Hours":null,"Handicap Access...":"No","coordinate":[-91.004445,38.444407]},{"Name":"Chelsea Market","Category":"Public","Address":"75 Ninth Ave","Hours":null,"Handicap Access...":"No","coordinate":[151.098602,-33.908986]},{"Name":"Times Square McDonalds","Category":"Public","Address":"1560 Broadway, New York, NY","Hours":null,"Handicap Access...":"No","coordinate":[-73.91606,40.685925]},{"Name":"Staten Island Ferry","Category":"Public","Address":"Water St & Whitehall St, New York, NY 10004, USA","Hours":"Monday to Sunday: 24 Hrs","Handicap Access...":"Yes","coordinate":[-74.0143,40.7031]},{"Name":"Castle Clinton","Category":"Other","Address":"Battery Park","Hours":null,"Handicap Access...":"Yes","coordinate":[-74.016937,40.711017]},{"Name":"Starbucks","Category":"Coffee Shop","Address":"10 Hanover Square, New York, NY 10005, USA","Hours":null,"Handicap Access...":"No","coordinate":[-74.008634,40.704886]},{"Name":"Starbucks","Category":"Coffee Shop","Address":"100 Wall St, New York, NY 10005","Hours":"Monday to Friday : 7:00 AM to 8:00 PM","Handicap Access...":"No","coordinate":[-74.00685,40.705174]},{"Name":"Public Atrium ~ 60 Wall St.","Category":"Public","Address":"60 Wall St, New York, NY 10005","Hours":null,"Handicap Access...":"No","coordinate":[-74.00875,40.70609]},{"Name":"Cosmos Service Inc","Category":"Public","Address":"65 Broadway, New York, NY 10006","Hours":null,"Handicap Access...":"No","coordinate":[-74.0123635,40.707157]},{"Name":"Burger King","Category":"Public","Address":"44 Gold St, New York, NY 10038","Hours":null,"Handicap Access...":"No","coordinate":[-74.00578,40.7088]},{"Name":"Starbucks","Category":"Coffee Shop","Address":"Fulton St, New York, NY 10038","Hours":null,"Handicap Access...":"Yes","coordinate":[-74.006511,40.7095275]},{"Name":"Century 21","Category":"Other","Address":"22 Cortlandt St.","Hours":null,"Handicap Access...":"Yes","coordinate":[-74.010736,40.710123]},{"Name":"Starbucks ( Battery Park Plaza)","Category":"Coffee Shop","Address":"1 Park Row, New York, NY 10038","Hours":"Monday to Friday : 7:00 AM to 8:00 PM","Handicap Access...":"No","coordinate":[-74.008655,40.711395]},{"Name":"World Financial Center","Category":"Other","Address":"World Financial Center, New York, NY 10280","Hours":null,"Handicap Access...":"No","coordinate":[-74.0145457578,40.7133885586]},{"Name":"Indian Express","Category":"Other","Address":"18 Murray St, New York, NY 10007","Hours":null,"Handicap Access...":"No","coordinate":[-74.008466,40.713419]},{"Name":"17 Murray St Restaurant","Category":"Other","Address":"17 Murray St, New York, NY 10007","Hours":null,"Handicap Access...":"No","coordinate":[-74.008102,40.713629]},{"Name":"New Amsterdam Branch Library","Category":"Public","Address":"9 Murray St, New York, NY 10007","Hours":null,"Handicap Access...":"Yes","coordinate":[-74.007923,40.713635]},{"Name":"2 Rivers","Category":"Other","Address":"10 Murray St, New York, NY 10007","Hours":null,"Handicap Access...":"No","coordinate":[-74.008126,40.713287]},{"Name":"Starbucks","Category":"Coffee Shop","Address":"Park Row, New York, NY 10038","Hours":null,"Handicap Access...":"No","coordinate":[-73.978284,40.750122]},{"Name":"STARBUCKS","Category":"Coffee Shop","Address":"291 Broadway, New York NY, 10007","Hours":"Monday to Friday : 7:00 AM to 8:00 PM","Handicap Access...":"No","coordinate":[-74.006013,40.714933]},{"Name":"Barnes & Noble Booksellers ~Tribeca","Category":"Book Store","Address":"97 Warren Street, New York, NY 10007","Hours":"Sunday: 9 AM to 8 PM, Monday to Saturday: 9 AM to ...","Handicap Access...":"No","coordinate":[-74.011778,40.715653]},{"Name":"STARBUCKS","Category":"Coffee Shop","Address":"111 Worth Street New York NY, 10013","Hours":"Monday to Friday : 7:00 AM to 8:00 PM","Handicap Access...":"No","coordinate":[-74.003558,40.716078]},{"Name":"Dunmow","Category":"Other","Address":"White St, New York, NY 10013","Hours":null,"Handicap Access...":"Yes","coordinate":[-74.00345,40.71813]},{"Name":"Bread","Category":"Other","Address":"301 Church St, New York, NY 10013","Hours":null,"Handicap Access...":"No","coordinate":[-74.00424,40.719253]},{"Name":"Tribeca Grand","Category":"Other","Address":"6 Avenue of the Americas, New York, NY 10013","Hours":null,"Handicap Access...":"Yes","coordinate":[-73.976822,40.765988]},{"Name":"Starbucks Coffee","Category":"Coffee Shop","Address":"241 Canal St, New York, NY 10013","Hours":"M~F 5~11pm Sat~Sun 6~midnight","Handicap Access...":"No","coordinate":[-73.999978,40.718255]},{"Name":"New Green Bo Restaurant","Category":"Other","Address":"66 Bayard St, New York, NY 10013","Hours":null,"Handicap Access...":"No","coordinate":[-73.998012,40.71559]},{"Name":"Columbus Park","Category":"Public","Address":"29 Baxter St, New York, NY 10013","Hours":null,"Handicap Access...":"No","coordinate":[-74.000097,40.716269]},{"Name":"Franklin Square","Category":"Public","Address":"70 Elizabeth St, New York, NY 10013","Hours":null,"Handicap Access...":"No","coordinate":[-73.995877,40.718377]},{"Name":"Grand Harmony","Category":"Other","Address":"94 Mott St, New York, NY 10013","Hours":null,"Handicap Access...":"No","coordinate":[-73.997363,40.717161]},{"Name":"STARBUCKS","Category":"Coffee Shop","Address":"471 Broadway New York NY, 10013","Hours":"Monday ~ Friday : 7:00 AM ~ 8:00 PM","Handicap Access...":"No","coordinate":[-74.000531,40.721271]},{"Name":"Time Warner Building","Category":"Other","Address":"near Columbus Circle","Hours":"most of the time","Handicap Access...":"Yes","coordinate":[-75.75139,39.62766]},{"Name":"Cafe Cafe","Category":"Other","Address":"470 Broome St, New York, NY 10013","Hours":null,"Handicap Access...":"No","coordinate":[-74.00134,40.72263]},{"Name":"Bloomingdales Soho","Category":"Public","Address":"504 Broadway (bet. Broome and Spring)","Hours":"Monday ~ Friday : 10:00 AM ~ 9:00 PM Saturday ~ Su...","Handicap Access...":"No","coordinate":[-76.184931,41.702853]},{"Name":"STARBUCKS","Category":"Coffee Shop","Address":"72 Spring Street, New York NY, 10012","Hours":"Monday ~ Friday : 7:00 AM ~ 8:00 PM","Handicap Access...":"No","coordinate":[-73.99785,40.722424]},{"Name":"Starbucks","Category":"Coffee Shop","Address":"Crosby St and Spring St , New York, NY 10012","Hours":"Monday ~ Friday : 7:00 AM ~ 8:00 PM","Handicap Access...":"No","coordinate":[-73.9979746,40.7226691]},{"Name":"Banana RePublic","Category":"Other","Address":"528 Broadway, New York, NY 10012","Hours":null,"Handicap Access...":"No","coordinate":[-73.99876,40.72291]},{"Name":"Cafe Duke","Category":"Other","Address":"545 Broadway, New York, NY 10012","Hours":null,"Handicap Access...":"No","coordinate":[-73.998659,40.723643]},{"Name":"Blue Ribbon Sushi","Category":"Other","Address":"119 Sullivan St, New York, NY 10012","Hours":null,"Handicap Access...":"No","coordinate":[-74.002444,40.726088]},{"Name":"Peep","Category":"Other","Address":"177 Prince St, New York, NY 10012","Hours":"Sunday, Monday ~ Thursday: 11:30 AM ~ 12:00 AM Fri...","Handicap Access...":"No","coordinate":[-74.001818,40.72643]},{"Name":"Apple Store ~ SOHO","Category":"Other","Address":"103 Prince St, New York, NY 10012","Hours":"Sun: 10:00 AM ~ 7:00 PM Mon ~ Wed , Sat : 9:30 AM ...","Handicap Access...":"Yes","coordinate":[-73.999063,40.725059]},{"Name":"Miro Cafe","Category":"Other","Address":"594 Broadway, New York, NY 10012","Hours":null,"Handicap Access...":"No","coordinate":[-73.996888,40.724904]},{"Name":"Broadway Gourmet","Category":"Other","Address":"588 Broadway, New York, NY 10012","Hours":null,"Handicap Access...":"No","coordinate":[-73.99708,40.724706]},{"Name":"Soho Billiards","Category":"Other","Address":"298 Mulberry St, New York, NY 10012","Hours":"Mon : 12:00 PM ~ 3:00 PM Tue ~ Sun : 11:00 AM ~ 3:...","Handicap Access...":"No","coordinate":[-73.994453,40.725119]},{"Name":"Botanica Bar","Category":"Other","Address":"47 E Houston St, New York, NY 10012","Hours":null,"Handicap Access...":"No","coordinate":[-73.994755,40.724645]},{"Name":"Milanos Bar","Category":"Other","Address":"51 E Houston St, New York, NY 10012","Hours":"Mon ~ Sat : 8:00 AM ~ 4:00 AM Sun: 12:00 PM ~ 12:0...","Handicap Access...":"No","coordinate":[-73.994613,40.724603]},{"Name":"Whole Foods Market","Category":"Other","Address":"95 E Houston St, New York, NY 10012","Hours":"Mon ~ Sun : 11:00 Am ~ 10:00 PM","Handicap Access...":"No","coordinate":[-73.992252,40.72367]},{"Name":"The National Underground","Category":"Other","Address":"159 E Houston St, New York, NY 10012","Hours":"Mon ~ Sun : 7:00 PM ~ 3:00 AM","Handicap Access...":"No","coordinate":[-73.98906,40.722831]},{"Name":"The Bean Coffee","Category":"Coffee Shop","Address":"21st Ave, New York, NY 10009","Hours":"Sun, Mon ~ Thu : 7:00 AM ~ 12:00 AM Fri ~ Sat : 7:...","Handicap Access...":"No","coordinate":[-73.981544,40.732101]},{"Name":"One and One","Category":"Other","Address":"76 E 1st St, New York, NY 10009","Hours":"Mon ~ Sun: 11:00 AM ~ 4:00 AM","Handicap Access...":"No","coordinate":[-73.988163,40.723287]},{"Name":"Le Pere Pinard","Category":"Other","Address":"175 Ludlow St, New York, N 10002","Hours":"Mon ~ Wed: 5PM ~ 12AM Thu : 5PM ~ 1AM Fri ~ Sat: 5...","Handicap Access...":"Yes","coordinate":[-73.987635,40.721899]},{"Name":"Stanton Social","Category":"Other","Address":"99 Stanton St, New York, NY 10002","Hours":null,"Handicap Access...":"No","coordinate":[-73.988103,40.721173]},{"Name":"Welcome to the Johnsons","Category":"Other","Address":"123 Rivington St, New York, NY 10002","Hours":null,"Handicap Access...":"No","coordinate":[-73.987313,40.719653]},{"Name":"Starbucks","Category":"Coffee Shop","Address":"400 East 54th Street New York NY, 10022","Hours":null,"Handicap Access...":"No","coordinate":[-73.964058,40.756072]},{"Name":"The Gap","Category":"Other","Address":"34th and Broadway, SE corner","Hours":"Sun : 10AM ~ 8PM M~F: 9AM ~9:30PM, Sat : 10AM ~9:3...","Handicap Access...":"No","coordinate":[-76.589025,39.308818]},{"Name":"Starbucks","Category":"Coffee Shop","Address":"750 Seventh Avenue New York NY, 10019","Hours":null,"Handicap Access...":"No","coordinate":[-73.983812,40.760808]},{"Name":"Aroma Expresso Bar","Category":"Coffee Shop","Address":"145 Greene St, New York, NY 10012","Hours":"Mon~ Sun: 7 AM ~ 11 PM","Handicap Access...":"No","coordinate":[-73.998658,40.726085]},{"Name":"STARBUCKS","Category":"Coffee Shop","Address":"665 Broadway New York NY, 10012","Hours":"Mon ~ Fri: 7 AM ~ 8 PM","Handicap Access...":"No","coordinate":[-73.99531,40.72733]},{"Name":"Wendys","Category":"Other","Address":"650 Broadway, New York, NY 10012","Hours":"650 Broadway, New York, NY 10012","Handicap Access...":"Yes","coordinate":[-73.996149,40.726448]},{"Name":"Au Bon Pain","Category":"Other","Address":"684 Broadway, New York, NY 10012","Hours":"Mon ~ Fri : 6 AM ~ 10 PM Sat ~ Sun : 7 AM ~ 9 PM","Handicap Access...":"Yes","coordinate":[-73.994398,40.727849]},{"Name":"Astor Wines","Category":"Other","Address":"399 Lafayette St, New York, NY 10003","Hours":"Mon ~ Sat : 9 AM ~ 9 PM Sun: 12 PM ~ 6 PM","Handicap Access...":"Yes","coordinate":[-73.993113,40.727933]},{"Name":"McDonalds","Category":"Other","Address":"27 3rd Ave, New York, NY 10003","Hours":null,"Handicap Access...":"No","coordinate":[-73.98959,40.72967]},{"Name":"Worlds Famous Rays Pizza","Category":"Other","Address":"2 St Marks Pl, New York, NY 10003","Hours":null,"Handicap Access...":"No","coordinate":[-73.989744,40.729305]},{"Name":"Chipotle","Category":"Other","Address":"18 St Marks Pl, New York, NY 10003","Hours":"Mon ~ Sun : 11 AM ~ 10 PM","Handicap Access...":"Yes","coordinate":[-73.989013,40.728955]},{"Name":"Mudspot","Category":"Coffee Shop","Address":"307 E 9th St, New York, NY 10003","Hours":"Mon ~ Fri : 8 Am ~ 12 AM Sat ~ Sun: 9 AM ~ 12 AM","Handicap Access...":"No","coordinate":[-73.98666,40.729062]},{"Name":"STARBUCKS","Category":"Coffee Shop","Address":"145 2nd Avenue New York NY, 10003","Hours":null,"Handicap Access...":"No","coordinate":[-73.987451,40.729422]},{"Name":"Macys","Category":"Other","Address":"Broadway & W 34th St, New York, NY 10001","Hours":null,"Handicap Access...":"No","coordinate":[-73.986496,40.749712]},{"Name":"Macys Cellar Bar & Grill","Category":"Other","Address":"134 W 34th St, New York, NY 10001","Hours":null,"Handicap Access...":"Yes","coordinate":[-73.98945,40.750265]},{"Name":"Macys Department Store","Category":"Public","Address":"151 West 34th St.","Hours":null,"Handicap Access...":"No","coordinate":[-82.167005,41.438953]},{"Name":"STARBUCKS","Category":"Coffee Shop","Address":"151 W. 34th Street New York NY, 10001","Hours":"Mon ~ Fri : 7 AM ~ 8 PM","Handicap Access...":"No","coordinate":[-73.99068,40.75054]},{"Name":"Old Navy","Category":"Other","Address":"150 W 34th St, New York, NY 10001","Hours":"Mon ~ Sat: 9 AM ~ 10 PM Sun : 10 AM ~ 8 PM","Handicap Access...":"Yes","coordinate":[-73.990047,40.750381]},{"Name":"Penn Station","Category":"Public","Address":"W 34th St & 7th Ave, New York, NY 10001","Hours":null,"Handicap Access...":"Yes","coordinate":[-73.9906121,40.7510092]},{"Name":"Macys","Category":"Other","Address":"199 W 34th St, New York, NY 10001","Hours":null,"Handicap Access...":"No","coordinate":[-73.9893,40.75054]},{"Name":"STARBUCKS","Category":"Coffee Shop","Address":"450 7th Avenue New York NY, 10017","Hours":"Mon ~ Fri : 7 AM ~ 8 PM","Handicap Access...":"No","coordinate":[-73.990512,40.75137]},{"Name":"Bread Factory Cafe","Category":"Other","Address":"470 7th Ave, New York, NY 10018","Hours":"Mon ~ Sat : 24 Hrs Sun: ~~~","Handicap Access...":"Yes","coordinate":[-73.99017,40.75232]},{"Name":"Wendys","Category":"Other","Address":"259 W 34th St, New York, NY 10001","Hours":null,"Handicap Access...":"Yes","coordinate":[-73.99275,40.75223]},{"Name":"TGI Fridays","Category":"Other","Address":"484 8th Ave, New York, NY 10001","Hours":"Mon ~ Sun : 10:30 AM ~ 11 PM","Handicap Access...":"Yes","coordinate":[-73.99321,40.75235]},{"Name":"STARBUCKS","Category":"Coffee Shop","Address":"494 Eighth Ave, New York, NY, 10001","Hours":null,"Handicap Access...":"Yes","coordinate":[-73.992792,40.752595]},{"Name":"New Yorker Hotel","Category":"Hotel","Address":"481 8th Ave, New York, Ny 10001","Hours":null,"Handicap Access...":"Yes","coordinate":[-73.9935,40.752679]},{"Name":"AMC Loews","Category":"Other","Address":"312 W 34th St, New York, NY 10001","Hours":"Mon ~ Sun : 11 AM ~ 1 AM","Handicap Access...":"Yes","coordinate":[-73.994552,40.752348]},{"Name":"Manganeros Hero~Boy Restaurant","Category":"Other","Address":"492 9th Ave, New York, NY 10018","Hours":"Mon ~ Fri : 9:30 AM ~ 9 PM Sat: 5 PM ~ 11:30 PM Su...","Handicap Access...":"No","coordinate":[-73.994397,40.755477]},{"Name":"Port Authority Bus Terminal","Category":"Public","Address":"8th Ave & 42nd street","Hours":"6 AM ~ 1 AM","Handicap Access...":"Yes","coordinate":[-90.4786093,41.5066479]},{"Name":"STARBUCKS","Category":"Coffee Shop","Address":"251 West 42nd Street New York NY, 10036","Hours":"Mon ~ Fri : 7 AM ~ 8 PM","Handicap Access...":"No","coordinate":[-73.989103,40.757234]},{"Name":"McDonalds","Category":"Other","Address":"220 W 42nd St, New York, NY 10036","Hours":"Mon ~ Sun: 24 Hrs","Handicap Access...":"Yes","coordinate":[-73.988033,40.756258]},{"Name":"Europa Cafe","Category":"Other","Address":"1485 Broadway, New York, NY 10036","Hours":"Mon ~ Sun : 24 Hrs","Handicap Access...":"Yes","coordinate":[-73.9863975,40.7566325]},{"Name":"Red Lobster","Category":"Other","Address":"5 Times Square, New York, NY 10036","Hours":null,"Handicap Access...":"Yes","coordinate":[-73.987158,40.755875]},{"Name":"STARBUCKS","Category":"Coffee Shop","Address":"1500 Broadway New York NY, 10019","Hours":"Mon ~ Fri : 7 AM ~ 8 PM","Handicap Access...":"Yes","coordinate":[-73.986458,40.757168]},{"Name":"Vol De Nuit","Category":"Other","Address":"148 W 4th St, New York, NY 10012","Hours":"Mon ~ Thu : 4 PM ~ 1 PM Fri : 4:30 PM ~ 3 AM Sat: ...","Handicap Access...":"No","coordinate":[-74.000672,40.731288]},{"Name":"Off the Wagon (bar)","Category":"Other","Address":"109 MacDougal St, New York, NY 10012","Hours":null,"Handicap Access...":"No","coordinate":[-74.000771,40.729908]},{"Name":"Qdoba","Category":"Other","Address":"185 Bleecker St, New York, NY 10012","Hours":"Sun ~ Wed : 11 AM ~ 12 AM Thu ~ Sat : 11 AM ~ 3 AM","Handicap Access...":"No","coordinate":[-74.000933,40.729225]},{"Name":"The Half Pint (bar)","Category":"Other","Address":"76 W 3rd St, New York, NY 10012","Hours":"Mon ~ Fri : 12 PM ~ 4 AM Sat ~ Sun : 12 PM ~ 5 PM","Handicap Access...":"No","coordinate":[-73.998521,40.72951]},{"Name":"Amys Bread (cafe)","Category":"Other","Address":"250 Bleecker St at Leroy Street, New York, NY 1001...","Hours":"Mon : 7:30 AM ~ 9 PM Tue ~ Fri: 7:30 AM ~ 11 PM Sa...","Handicap Access...":"Yes","coordinate":[-73.986402,40.763762]},{"Name":"The Grey Dog Coffee","Category":"Coffee Shop","Address":"33 Carmine St, New York, NY 10014","Hours":"Mon ~ Thu: 6:30 AM ~ 11:30 PM Fri : 6:30 AM ~ 12:3...","Handicap Access...":"No","coordinate":[-74.003232,40.730246]},{"Name":"Lederhosen","Category":"Other","Address":"39 Grove St, New York, NY 10014","Hours":"Mon : ~~~ Tue : 12 PM ~ 12 AM Wed ~ Sat : 12 PM ~ ...","Handicap Access...":"No","coordinate":[-74.004517,40.732908]},{"Name":"Starbucks","Category":"Coffee Shop","Address":"518 Hudson St, New York, 10014","Hours":null,"Handicap Access...":"No","coordinate":[-74.006123,40.733691]},{"Name":"Maries Crisis ( bar)","Category":"Other","Address":"59 Grove St, New York, NY 10014","Hours":null,"Handicap Access...":"No","coordinate":[-74.003387,40.73322]},{"Name":"The Riviera Cafe","Category":"Other","Address":"225 W 4th St, New York, NY 10014","Hours":"Mon ~ Thu : 11 AM ~ 12:30 AM Fri ~ Sat : 11 AM ~ 1...","Handicap Access...":"No","coordinate":[-74.002809,40.734048]},{"Name":"The White Horse","Category":"Other","Address":"567 Hudson St, New York, NY 10014","Hours":null,"Handicap Access...":"No","coordinate":[-74.006177,40.735703]},{"Name":"Starbucks","Category":"Coffee Shop","Address":"72 Grove Street , New York, NY, 10014","Hours":"Mon ~ Fri : 7 AM ~ 8 PM","Handicap Access...":"No","coordinate":[-74.002746,40.733171]},{"Name":"Down the Hatch (bar)","Category":"Other","Address":"179 W 4th St, New York, NY 10014","Hours":null,"Handicap Access...":"No","coordinate":[-74.00164,40.732464]},{"Name":"Fiddlesticks Bar","Category":"Other","Address":"56 Greenwich Ave, New York, NY 10011","Hours":null,"Handicap Access...":"No","coordinate":[-74.000477,40.735898]},{"Name":"Wachovia Bank","Category":"Other","Address":"Avenue of the Americas & 53rd Street","Hours":null,"Handicap Access...":"No","coordinate":[-75.16514,39.92606]},{"Name":"Nedicks, Dunkin Donuts, KFC","Category":"Other","Address":"1286 Broadway, New York, NY\u00e2\u0080\u008e","Hours":"6:00 am ~ 10:00 pm","Handicap Access...":"No","coordinate":[-73.701508,40.639165]},{"Name":"Hop Lee Restaurant","Category":"Other","Address":"21 Mott Street","Hours":null,"Handicap Access...":"No","coordinate":[152.985921,-27.417147]},{"Name":"Barnes & Noble","Category":"Book Store","Address":"99 Warren St","Hours":"9 AM ~ 9 PM","Handicap Access...":"No","coordinate":[153.251644,-27.596171]},{"Name":"Whole Foods Tribeca","Category":"Other","Address":"270 Greenwich St, New York, NY 10007","Hours":"8 AM ~ 10 PM","Handicap Access...":"No","coordinate":[-74.01178,40.715477]},{"Name":"Delizia Uno","Category":"Other","Address":"26 Murray St, New York, NY 10007","Hours":null,"Handicap Access...":"No","coordinate":[-74.008742,40.713653]},{"Name":"Petite Abeille","Category":"Other","Address":"401 E 20th St, New York, NY 10010","Hours":null,"Handicap Access...":"No","coordinate":[-73.979491,40.734995]},{"Name":"Paddy Reillys Pub","Category":"Other","Address":"519 2nd Ave, New York, NY 10016","Hours":"Mon : 11 AM ~ 4 AM Sun: 12 PM ~ 12 AM","Handicap Access...":"No","coordinate":[-73.978445,40.741628]},{"Name":"Failte Irish Whiskey Bar","Category":"Other","Address":"531 2nd Ave, New York, NY 10016, USA","Hours":"Mon ~ Sun : 12:00 PM ~ 4:00 AM","Handicap Access...":"No","coordinate":[-73.978167,40.74206]},{"Name":"Whiskey River","Category":"Other","Address":"575 2nd Ave, New York, NY 10016","Hours":"Mon ~ Sat : 3 PM ~ 4 AM Sun : 3 PM ~ 12 AM","Handicap Access...":"No","coordinate":[-73.977217,40.743322]},{"Name":"Borders Books","Category":"Other","Address":"576 2nd Ave, New York, NY 10016","Hours":"Mon ~ Thu : 9 AM ~ 10 PM Fri ~ Sat : 9 AM ~ 11 PM ...","Handicap Access...":"Yes","coordinate":[-73.976618,40.743048]},{"Name":"Benjamin Bar & Restaurant","Category":"Other","Address":"603 2nd Ave, New York, NY 10016","Hours":"Mon ~ Sun : 11:30 AM ~ 10:00 PM","Handicap Access...":"No","coordinate":[-73.976493,40.744289]},{"Name":"Hook & Ladder Pub","Category":"Other","Address":"611 2nd Ave, New York, NY 10016","Hours":"Mon ~ Sat : 2PM ~ 4PM Sun: 2 PM ~12 AM","Handicap Access...":"No","coordinate":[-73.97625,40.74444]},{"Name":"Columbia University","Category":"Other","Address":"The campus there look for bathroom ind the Pupin a...","Hours":"Whenever the University is open I guess.","Handicap Access...":"No","coordinate":[-77.440407,38.996402]},{"Name":"Herald Square Park","Category":"Public","Address":"Broadway & 35th Street","Hours":"7am~9pm","Handicap Access...":"Yes","coordinate":[-74.1014678,40.9253865]},{"Name":"Greeley Square Park","Category":"Public","Address":"Broadway & 32nd Street","Hours":"7am~9pm","Handicap Access...":"Yes","coordinate":[-73.9245807,40.7615965]},{"Name":"Lincoln Center for Performing Arts","Category":"Public","Address":"138 W. 65th St.","Hours":"Hours of Center","Handicap Access...":"No","coordinate":[-118.27537,33.98035]},{"Name":"Pizza Atpu","Category":"Other","Address":"Broadway 22","Hours":"24h","Handicap Access...":"No","coordinate":[20.163808,44.985286]},{"Name":"Brooklyn Public Library central branch","Category":"Public","Address":"Grand Army Plaza","Hours":"Library hours","Handicap Access...":"Yes","coordinate":[-73.969673,40.672526]},{"Name":"Brooklyn Botanic Gardens","Category":"Other","Address":"1000 Washington Avenue","Hours":"Garden hours","Handicap Access...":"Yes","coordinate":[-82.42987,42.9886]},{"Name":"Underhill Playground","Category":"Public","Address":"Underhill Ave at Prospect Place","Hours":"8~dusk","Handicap Access...":"No","coordinate":[-87.937291,42.066417]},{"Name":"Saks Fifth Avenue","Category":"Public","Address":"611 Fifth Avenue (between E. 49th and 50th st.), N...","Hours":"M~Sat: 10 to 8, Sun: Noon to 7","Handicap Access...":"Yes","coordinate":[5.312792,51.852199]},{"Name":"Bloomingdales","Category":"Public","Address":"1000 Third Avenue (between E. 59th and 60th st.), ...","Hours":"M~F: 10 to 8:30, Sat: 10 to 7, Sun: 11 to 7","Handicap Access...":"Yes","coordinate":[-76.767745,38.256241]},{"Name":"Metropolitan Museum of Art","Category":"Other","Address":"1000 Fifth Avenue, New York, NY 10028","Hours":"Mon:Closed, Tue~Thu,Sun: 9:30 to 5:30, Fri, Sat: 9...","Handicap Access...":"Yes","coordinate":[-73.964446,40.778909]},{"Name":"Penn Station~ New Jersey Transit","Category":"Public","Address":"14 Penn Plaza, New York, NY 10001","Hours":"Closed from 1:30AM 6:00AM","Handicap Access...":"Yes","coordinate":[-73.9915,40.751969]},{"Name":"Rockefeller Center","Category":"Public","Address":"47~50 st","Hours":"7:00 am~1:00 am","Handicap Access...":"Yes","coordinate":[-112.66392,49.459658]},{"Name":"Public Restroom","Category":"Public","Address":"Shore Road Park at 79th Street","Hours":null,"Handicap Access...":"No","coordinate":[15.448901,46.821062]},{"Name":"The Soltaire","Category":"Public","Address":"20 River Terrace, New York, NY 10282","Hours":"Not Certain","Handicap Access...":"Yes","coordinate":[-74.01611,40.716715]},{"Name":"Chelsea Piers Golf Club","Category":"Public","Address":"11th Ave & W 22nd St","Hours":null,"Handicap Access...":"No","coordinate":[-73.4225409,40.8323047]},{"Name":"Playground","Category":"Public","Address":"Madison st. & Jefferson","Hours":"10:00 AM to 7:00 PM","Handicap Access...":"No","coordinate":[-81.8819175,40.0674641]},{"Name":"Playground","Category":"Public","Address":"Market St. & Cherry St.","Hours":"10:00 AM to 7:00 PM","Handicap Access...":"No","coordinate":[-82.8767847,42.5996689]},{"Name":"Playground","Category":"Public","Address":"Catherine Slip & Monroe St.","Hours":"10:00 AM to 7:00 PM","Handicap Access...":"No","coordinate":[-73.9967699,40.7113819]},{"Name":"Wendys","Category":"Public","Address":"6420 AMBOY ROAD","Hours":"10am ~10pm","Handicap Access...":"Yes","coordinate":[-74.21676,40.521189]},{"Name":"Roosevelt Island Tramway","Category":"Public","Address":"Road 5, New York, New York","Hours":"5:45am ~ 2:30am","Handicap Access...":"No","coordinate":[-73.838316,40.714195]},{"Name":"NY Waterway Ferry Terminal","Category":"Public","Address":"W. 39th & 12th Ave","Hours":"6am ~ 1am","Handicap Access...":"No","coordinate":[-83.69889,43.02807]},{"Name":"Great Kills Park Beach Center","Category":"Public","Address":"204 Buffalo Street","Hours":"Dawn ~ Dusk, Seasonal","Handicap Access...":"Yes","coordinate":[-115.571192,51.174486]},{"Name":"New York Public Library Schwarzman Building","Category":"Public","Address":"5th Avenue & 42nd Street","Hours":"Mo~Sa: 10am~6pm Su: 1pm~5pm","Handicap Access...":"Yes","coordinate":[-83.401227,41.173714]},{"Name":"Time Warner","Category":"Public","Address":"Columbus Circle","Hours":"Store HOurs","Handicap Access...":"No","coordinate":[-73.98176175,40.768134]},{"Name":"Great Kills Park Parking Lot","Category":"Public","Address":"Buffalo St","Hours":"Dawn ~ Dusk, Seasonal","Handicap Access...":"No","coordinate":[-78.883786,42.934621]},{"Name":"Burger King","Category":"Public","Address":"Richmond Ave & Amboy Rd","Hours":"10am ~10pm","Handicap Access...":"Yes","coordinate":[-80.770659,40.4316]},{"Name":"Home Depot","Category":"Public","Address":"2970 Cropsey Ave, Brooklyn, NY 11214","Hours":"6 am ~ 10 pm","Handicap Access...":"No","coordinate":[-73.988687,40.581637]},{"Name":"Pathmark","Category":"Public","Address":"2965 Cropsey Ave., Brooklyn, NY","Hours":"24 hours","Handicap Access...":"No","coordinate":[-73.985083,40.582737]},{"Name":"Loehmanns Department Store","Category":"Public","Address":"2807 EAST 21ST STREET BROOKLYN, NY 11235 (718) 368...","Hours":"10~9 M~S, 11~7 Sun","Handicap Access...":"No","coordinate":[-73.947655,40.58511]},{"Name":"Battery Park","Category":"Public","Address":"7 Slate St, New York, NY 10004, USA","Hours":null,"Handicap Access...":"No","coordinate":[-74.013742,40.702546]},{"Name":"Castle Clinton","Category":"Public","Address":"17 Battery Pl, New York, NY 10005","Hours":"8:30am~5pm","Handicap Access...":"Yes","coordinate":[-74.016568,40.703488]},{"Name":"Public Toilets","Category":"Public","Address":"By the entrance to Chelsea Pier","Hours":null,"Handicap Access...":"No","coordinate":[151.496017,-33.344059]},{"Name":"Inside Playground at Union Sq.","Category":"Public","Address":"Union Square NE side","Hours":"Untill Dusk","Handicap Access...":"Yes","coordinate":[-95.922784,40.813335]},{"Name":"Barnes & Noble","Category":"Book Store","Address":"33 East 17th St","Hours":"10 am ~ 10 pm","Handicap Access...":"Yes","coordinate":[-79.857551,43.241324]},{"Name":"MET Metropolitan Museum of Art","Category":"Other","Address":"5th Ave between 80th and 84th St","Hours":"9:30am~5:15pm","Handicap Access...":"Yes","coordinate":[4.153099,51.154076]},{"Name":"Conservatory Pond ~ Central Park close to 74th St ...","Category":"Public","Address":"Conservatory Pond ~ Central Park close to 74th St ...","Hours":"Park hours","Handicap Access...":"No","coordinate":[-89.76815,38.713937]},{"Name":"AMC Loews","Category":"Other","Address":"W 32nd St, New York, NY 10001","Hours":null,"Handicap Access...":"No","coordinate":[-73.9885225,40.748296]},{"Name":"Pier 84 Comfort Station","Category":"Public","Address":"Hudson River Greenway at 44th St","Hours":null,"Handicap Access...":"Yes","coordinate":[-81.440667,41.240056]},{"Name":"Riverside Branch New York Public Library","Category":"Public","Address":"127 Amsterdam Avenue (at W. 65th St.)","Hours":"10am~6pm","Handicap Access...":"Yes","coordinate":[15.622912,48.204399]},{"Name":"Subway","Category":"Public","Address":null,"Hours":null,"Handicap Access...":null,"coordinate":[-70.063891,41.257081]},{"Name":"Playground 174","Category":"Public","Address":"East 174 Street, Stratford Ave","Hours":"park hours","Handicap Access...":null,"coordinate":[-8.653784,40.640496]},{"Name":"Bronx River Parkway","Category":"Public","Address":"Bronx Blvd between East 226 St and East 228 St","Hours":"park hours","Handicap Access...":null,"coordinate":[-116.273629,32.663671]},{"Name":"Abigail Playground","Category":"Public","Address":"East 156 Street, Tinton Avenue","Hours":"park hours","Handicap Access...":null,"coordinate":[-5.974486,37.367385]},{"Name":"Agnes Haywood Playground","Category":"Public","Address":"East 215 Street, Barnes Avenue, East 216 Street","Hours":"park hours","Handicap Access...":null,"coordinate":[-76.334404,39.629273]},{"Name":"Allerton Playground","Category":"Public","Address":"Anrow Avenue, Bouck Avenue, Throop Avenue, Streete...","Hours":"park hours","Handicap Access...":null,"coordinate":[-109.094567,35.645012]},{"Name":"Arcilla Playground","Category":"Public","Address":"Teller Avenue, Park Avenue, Clay Avenue, East 64 S...","Hours":"park hours","Handicap Access...":null,"coordinate":[-82.587222,42.631263]},{"Name":"Bailey Playground","Category":"Public","Address":"Bailey Avenue, Weast 233-West 238 Streets","Hours":"park hours","Handicap Access...":null,"coordinate":[-81.345941,41.239223]},{"Name":"Behagen Playground","Category":"Public","Address":"Tinton Avenue, East 165 Street, Union Avenue, East...","Hours":"park hours","Handicap Access...":null,"coordinate":[-86.128468,40.217362]},{"Name":"Belmont Playground","Category":"Public","Address":"Crotona Avenue, East 181 Street","Hours":"park hours","Handicap Access...":null,"coordinate":[-77.62185,43.18103]},{"Name":"Bronx Park","Category":"Public","Address":"Lydig Avenue & Bonx Park East","Hours":"park hours","Handicap Access...":"no","coordinate":[-73.869377,40.854266]},{"Name":"Bronx Park","Category":"Public","Address":"Bronx Park East between Bronxdale Avenue and Union...","Hours":"park hours","Handicap Access...":null,"coordinate":[-74.263202,40.697602]},{"Name":"Bronx Park","Category":"Public","Address":"East 204 Street & W\/S Bronx Park","Hours":"park hours","Handicap Access...":null,"coordinate":[-106.601421,39.291654]},{"Name":"Bronx Park","Category":"Public","Address":"East 219 Street & Bronx River Parkway","Hours":"park hours","Handicap Access...":null,"coordinate":[-121.458843,38.496019]},{"Name":"Bronx Park","Category":"Public","Address":"Southern Voulevard, Webster, Burke avenues, Bronx ...","Hours":"park hours","Handicap Access...":null,"coordinate":[34.882363,30.672275]},{"Name":"Bronx Park","Category":"Public","Address":"East 180th Street, Boston Road","Hours":"park hours","Handicap Access...":null,"coordinate":[-72.500619,42.137166]},{"Name":"Bronx Park","Category":"Public","Address":"Bronx River Parkway & Rosewood Street","Hours":"park hours","Handicap Access...":null,"coordinate":[-73.8356009,40.8286758]},{"Name":"Bronx River Parkway","Category":"Public","Address":"Bronx River Parkway, Bronx Park, Westchester\/NYC C...","Hours":"park hours","Handicap Access...":null,"coordinate":[-73.897212,40.847019]},{"Name":"Bufano Park","Category":"Public","Address":"La Salle Avenue, Edison Avenue, Bradford Avenue, W...","Hours":"park hours","Handicap Access...":null,"coordinate":[102.6133707,17.9640988]},{"Name":"Cauldwell Playground","Category":"Public","Address":"Caldwell Avenue, East 163 Street, East 161 Street","Hours":"park hours","Handicap Access...":null,"coordinate":[-116.563498,47.209074]},{"Name":"Cedar Playground","Category":"Public","Address":"West 179 Street, West Burnside Avenue, Major Deega...","Hours":"park hours","Handicap Access...":null,"coordinate":[-97.093347,31.803481]},{"Name":"Ciccarone Park Playground","Category":"Public","Address":"Arthur Avenue, East 188 Street","Hours":"park hours","Handicap Access...":null,"coordinate":[-69.933606,18.478505]},{"Name":"Claremont Park","Category":"Public","Address":"Mount Eden Parkway & Morris Avenue","Hours":"park hours","Handicap Access...":"no","coordinate":[-73.9095981,40.8427586]},{"Name":"Clark Playground","Category":"Public","Address":"3 Avenue, East 144 Street, East 146 Street","Hours":"park hours","Handicap Access...":null,"coordinate":[-73.922384,40.813533]},{"Name":"Colucci Playground","Category":"Public","Address":"Hutchinson River Parkway, Wilkinson Avenue, Mayflo...","Hours":"park hours","Handicap Access...":null,"coordinate":[-91.391506,31.951547]},{"Name":"Crotona Park (Martin Van Buren Playground)","Category":"Public","Address":"Crotona East & Claremont Parkway","Hours":"park hours","Handicap Access...":"no","coordinate":[-73.887219,40.838035]},{"Name":"Crotona Park (Playground of the Stars)","Category":"Public","Address":"Fulton Avenue & Crotona Park South","Hours":"park hours","Handicap Access...":"no","coordinate":[-73.9012564,40.8354692]},{"Name":"Crotona Park (Pool House)","Category":"Public","Address":"173rd Street & Fulton Avenue","Hours":"park hours","Handicap Access...":"yes","coordinate":[-80.685645,40.070902]},{"Name":"Crotona Park (Environmental Center)","Category":"Public","Address":"Crotona Park North, Crotona Park South, Crotona Pa...","Hours":"park hours","Handicap Access...":"no","coordinate":[-78.2907462469,41.0911397651]},{"Name":"Devoe Park","Category":"Public","Address":"West Fordham Road, University Avenue, Sedgwick Ave...","Hours":"park hours","Handicap Access...":"no","coordinate":[-8.6537841,40.640496]},{"Name":"Drew Playground","Category":"Public","Address":"Fulton Avenue, East 169 Street","Hours":"park hours","Handicap Access...":null,"coordinate":[174.856995,-36.940574]},{"Name":"Eastchester Playground","Category":"Public","Address":"Adee Avenue, Tenbroeck Avenue","Hours":"park hours","Handicap Access...":null,"coordinate":[-81.554062,30.1845695]},{"Name":"Edenwald Playground","Category":"Public","Address":"East 226 Drive, Schieffelin Avenue","Hours":"park hours","Handicap Access...":"no","coordinate":[-73.84674,40.88441]},{"Name":"Flynn Playground","Category":"Public","Address":"3 Avenue, East 158 Street, Brook Avenue, East 157 ...","Hours":"park hours","Handicap Access...":null,"coordinate":[-73.912452,40.821231]},{"Name":"Fort Independence Playground","Category":"Public","Address":"Stevenson Place, West 238 Street, Sedgwick Avenue","Hours":"park hours","Handicap Access...":null,"coordinate":[10.4215565,5.4758083]},{"Name":"Name","Category":"Category","Address":"Address","Hours":"Hours","Handicap Access...":"Handicap Accessible?","coordinate":[55.2776065,25.1995565]},{"Name":"Franz Sigel Park","Category":"Public","Address":"East 153 Street, Gerard Avenue, East 151 Street, W...","Hours":"park hours","Handicap Access...":null,"coordinate":[-2.742173,51.12558]},{"Name":"Grove Hill Playground","Category":"Public","Address":"East 158 Street, Caldwell Avenue, Eagle Avenue","Hours":"park hours","Handicap Access...":null,"coordinate":[-88.392821,37.651159]},{"Name":"Grove Hill Playground","Category":"Public","Address":"Holland Avenue, Magenta Street, Cueger Avenue","Hours":"park hours","Handicap Access...":null,"coordinate":[-86.109083,42.787602]},{"Name":"Haffen Park","Category":"Public","Address":"Burke Avenue, Hammersley Avenue, Gunther Avenue, E...","Hours":"park hours","Handicap Access...":"no","coordinate":[-77.275469,38.777132]},{"Name":"Harris Park","Category":"Public","Address":"West 205 Street, Paul Avenue, Bedford Pk B, Goulde...","Hours":"park hours","Handicap Access...":null,"coordinate":[-87.77701,41.769052]},{"Name":"Havemeyer","Category":"Public","Address":"Watson Avenue, Havennuemeter Avenue, Cross Bronx E...","Hours":"park hours","Handicap Access...":null,"coordinate":[-88.569772,39.025321]},{"Name":"Henry Hudson Park","Category":"Public","Address":"Palisade Avenue, Kappock Street & Independence Ave...","Hours":"park hours","Handicap Access...":null,"coordinate":[-80.507569,40.25396]},{"Name":"Horseshoe Playground","Category":"Public","Address":"Hall Place, Rodgers Place, East 165 Street","Hours":"park hours","Handicap Access...":null,"coordinate":[-96.323264,31.877168]},{"Name":"Hunts Point Playground","Category":"Public","Address":"Spofford Avenue, Hunts Point Avenue, Faile Street","Hours":"park hours","Handicap Access...":null,"coordinate":[-64.033792,44.961937]},{"Name":"Julio Barballo Field","Category":"Public","Address":"Lafayette Avenue, Manda Street","Hours":"park hours","Handicap Access...":null,"coordinate":[-90.19123,38.66718]},{"Name":"Loreto Park Playground","Category":"Public","Address":"Morris Park Avenue, Haight Avenue, Tomlinson Avenu...","Hours":"park hours","Handicap Access...":null,"coordinate":[-88.421523,41.357414]},{"Name":"Lozada Playground","Category":"Public","Address":"East 135 Street, Willis Avenue, Alexander Avenue","Hours":"park hours","Handicap Access...":null,"coordinate":[4.345484,50.824996]},{"Name":"Magenta Playground","Category":"Public","Address":"Olinville Avenue, Rosewood Street","Hours":"park hours","Handicap Access...":null,"coordinate":[-73.86783,40.87352]},{"Name":"Mapes Pool","Category":"Public","Address":"East 180 Street, Mapes & Prospect avenues","Hours":"park hours","Handicap Access...":null,"coordinate":[-76.302736,39.690383]},{"Name":"Marble Hill Playground","Category":"Public","Address":"Marble Hill Avenue, West 130 Street, West 228 Stre...","Hours":"park hours","Handicap Access...":null,"coordinate":[-89.970379,37.305887]},{"Name":"Matthew Muliner Playground","Category":"Public","Address":"Delancy Place, Miliner Avenue, Matthews Avenue","Hours":"park hours","Handicap Access...":null,"coordinate":[-80.722439,35.115953]},{"Name":"Mazzei Playground","Category":"Public","Address":"Mace Avenue, Williamsbridge Road","Hours":"park hours","Handicap Access...":null,"coordinate":[-123.187805,44.08754]},{"Name":"Mosholu Playground","Category":"Public","Address":"Mosholu Parkway, Bainbridge Avenue, Briggs Avenue","Hours":"park hours","Handicap Access...":null,"coordinate":[-84.575477,30.903825]},{"Name":"Mott Playground","Category":"Public","Address":"Morris Avenue, College Avenue, McClellan Street","Hours":"park hours","Handicap Access...":null,"coordinate":[-74.080142,40.644548]},{"Name":"Mullaly Park (Skate Building)","Category":"Public","Address":"East 164 Street, Jerome Avenue, Macombs Dam Bridge...","Hours":"park hours","Handicap Access...":null,"coordinate":[-74.013176,45.775426]},{"Name":"Noble Playground","Category":"Public","Address":"Nobel Avenue, Bronx River Avenue, Bronx River Park...","Hours":"park hours","Handicap Access...":null,"coordinate":[-85.596861,42.004466]},{"Name":"Orchard Beach Pavilion","Category":"Public","Address":"Bruckner Boulevard, Eastchester Bay, Hutchinson","Hours":"park hours","Handicap Access...":null,"coordinate":[-73.824975,40.842945]},{"Name":"Owen Dolen Recreation Center","Category":"Public","Address":"Westchester Avenue, Lane Avenue, East Tremont Aven...","Hours":"park hours","Handicap Access...":"no","coordinate":[-64.905682,44.957692]},{"Name":"P.O. Serrano Playground","Category":"Public","Address":"Turnbull Avenue, Olmstead Avenue, Lafayette Avenue","Hours":"park hours","Handicap Access...":null,"coordinate":[-92.019843,30.22409]},{"Name":"Parkside Playground","Category":"Public","Address":"Arnow Avenue, Adee Avenue, Olinville Avenue","Hours":"park hours","Handicap Access...":null,"coordinate":[-81.436341,26.331567]},{"Name":"Pelham Bay Park (Playground for All Children)","Category":"Public","Address":"Bruckner Expressway & Buhre Avenue","Hours":"park hours","Handicap Access...":"yes","coordinate":[-73.831143,40.847641]},{"Name":"Quarry Ballfields","Category":"Public","Address":"Quarry Road, East 181 Street, Oak Place & Hughes A...","Hours":"park hours","Handicap Access...":null,"coordinate":[-94.971902,34.949265]},{"Name":"Rainey Park","Category":"Public","Address":"Dawson Street, Beck Street, Kelly Street, Interval...","Hours":"park hours","Handicap Access...":null,"coordinate":[-110.625902,43.62246]},{"Name":"Randall Playground","Category":"Public","Address":"Randall Avenue, Castle Hill Avenue","Hours":"park hours","Handicap Access...":null,"coordinate":[-122.057213,37.877636]},{"Name":"Rev. Polite Playground","Category":"Public","Address":"Rev. James Polite Avenue, Intervale Avenue, East 1...","Hours":"park hours","Handicap Access...":null,"coordinate":[-81.541195,41.58954]},{"Name":"Richman (Echo) Park Playground","Category":"Public","Address":"East 178 Street & Ryer Avenue, Upper Level","Hours":"park hours","Handicap Access...":null,"coordinate":[-102.37796,33.587316]},{"Name":"Rienzi Playground","Category":"Public","Address":"East 226 Street, Barnes Avenue, East 225 Street","Hours":"park hours","Handicap Access...":null,"coordinate":[-98.20001,29.414401]},{"Name":"Rose Hill Park","Category":"Public","Address":"Webster Avenue, Harlem River, East Fordham Road","Hours":"park hours","Handicap Access...":null,"coordinate":[-95.116156,29.535172]},{"Name":"Seton Park","Category":"Public","Address":"West 135 Street, Independence Avenue, West 232 Str...","Hours":"park hours","Handicap Access...":null,"coordinate":[-91.321243,35.967573]},{"Name":"Slattery Playground","Category":"Public","Address":"East 183 Street, Ryer Avenue, Valentine Avenue","Hours":"park hours","Handicap Access...":null,"coordinate":[-100.550616,42.874675]},{"Name":"Space Time Playground","Category":"Public","Address":"Streetory Avenue, Bolton Avenue, Lafayette Avenue,...","Hours":"park hours","Handicap Access...":null,"coordinate":[-73.161542,41.195513]},{"Name":"Tiffany Playground","Category":"Public","Address":"Tiffany Street, Fox Street, East 167 Street","Hours":"park hours","Handicap Access...":null,"coordinate":[-90.241715,38.621137]},{"Name":"Tremont Park Playground","Category":"Public","Address":"Corner of East 175 Street & Arthur Avenue","Hours":"park hours","Handicap Access...":null,"coordinate":[-66.757972,47.889202]},{"Name":"Van Cortlandt Park (Allen Shandler Recreation Area...","Category":"Public","Address":"Broadway, Jerome Avenue, City Line, Van Cortlandt ...","Hours":"park hours","Handicap Access...":"no","coordinate":[43.3946051,38.500875]},{"Name":"Van Cortlandt Park (Classic Playground)","Category":"Public","Address":"Van Cortlandt Park South and Gouverneur Avenue","Hours":"park hours","Handicap Access...":"no","coordinate":[-73.8908106,40.8848889]},{"Name":"Van Cortlandt Park (Nature Center)","Category":"Public","Address":"West 239 Street & Van Cortlandt East","Hours":"park hours","Handicap Access...":"no","coordinate":[-76.101593,42.66618]},{"Name":"Van Cortlandt Park (Pool Building)","Category":"Public","Address":"West 242nd Street & Broadway","Hours":"park hours","Handicap Access...":"no","coordinate":[-97.094292,31.805098]},{"Name":"Van Cortlandt Park (Stables Area)","Category":"Public","Address":"Broadway and West 254th Street","Hours":"park hours","Handicap Access...":"no","coordinate":[-73.8969054,40.9010518]},{"Name":"Van Cortlandt Park (Woodlawn Playground)","Category":"Public","Address":"West 239 Street & Broadway","Hours":"park hours","Handicap Access...":"no","coordinate":[28.439194,-25.980983]},{"Name":"Vidalia Park","Category":"Public","Address":"Vyse & Daly avenues between West 179-180 streets","Hours":"nyr","Handicap Access...":null,"coordinate":[-97.558331,29.971053]},{"Name":"Vinmont Veteran Playground","Category":"Public","Address":"Mosholu Avenue, West 254 Street, Riverdale Avenue,...","Hours":"park hours","Handicap Access...":null,"coordinate":[-84.413259,33.572611]},{"Name":"Virginia Playground","Category":"Public","Address":"Virginia Avenue, McGraw Avenue, Cross Bronx Expres...","Hours":"nyr","Handicap Access...":null,"coordinate":[-78.6190526173,37.6775920441]},{"Name":"Watson Gleason Playground","Category":"Public","Address":"Gleason Avenue, Rosedale Avnue, Watson Avenue, Nob...","Hours":"park hours","Handicap Access...":null,"coordinate":[-81.549808,39.744588]},{"Name":"Abe Lincoln Playground","Category":"Public","Address":"East 135 Street, between Madison & 5 avenues","Hours":"park hours","Handicap Access...":null,"coordinate":[-73.21329,44.453026]},{"Name":"Alexander Hamilton Playground","Category":"Public","Address":"Hamilton Place, West 140 to West 141 Streets","Hours":"park hours","Handicap Access...":null,"coordinate":[-4.0239568,39.8560679]},{"Name":"Alfred E. Smith Park","Category":"Public","Address":"Catherine Slip, Madison & South Streets","Hours":"park hours","Handicap Access...":null,"coordinate":[-93.764081,35.824246]},{"Name":"Alice Kornegay Triangle","Category":"Public","Address":"Lexington Avenue, East 128 & East 129 Streets","Hours":"park hours","Handicap Access...":"no","coordinate":[-81.103149,34.048763]},{"Name":"Annunciation Park","Category":"Public","Address":"Convent and Amsterdam Avenue, W 135 Street","Hours":"park hours","Handicap Access...":null,"coordinate":[-90.751759,29.998258]},{"Name":"Asser Levy Playground","Category":"Public","Address":"Asser Levy Place & East 24-25 streets","Hours":"park hours","Handicap Access...":"no","coordinate":[13.9292498,3.1989494]},{"Name":"Audoubon Playground","Category":"Public","Address":"West 170 Street & audubon avenue","Hours":"park hours","Handicap Access...":"no","coordinate":[-73.9375115,40.8416705]},{"Name":"Bendheim Playground","Category":"Public","Address":"100th Street and 5th Avenue","Hours":"park hours","Handicap Access...":null,"coordinate":[-92.365593,45.2164]},{"Name":"Bennett Park","Category":"Public","Address":"West 185 Street, Ft Washington Avenue","Hours":"park hours","Handicap Access...":null,"coordinate":[-77.01246,38.712531]},{"Name":"Bleecker Playground","Category":"Public","Address":"Hudson & West 11 streets","Hours":"park hours","Handicap Access...":null,"coordinate":[-71.42206,42.7386]},{"Name":"Bloomingdale Playground","Category":"Public","Address":"Amsterdam Avenue, West 104 & West 105 streets","Hours":"park hours","Handicap Access...":null,"coordinate":[4.9,52.378]},{"Name":"Carmansville Playground","Category":"Public","Address":"Amsterdam Avenue, West 151 to West 152 streets","Hours":"park hours","Handicap Access...":null,"coordinate":[-4.241446,40.118683]},{"Name":"Chelsea Park","Category":"Public","Address":"West 27 Street & 9 Avenue","Hours":"park hours","Handicap Access...":null,"coordinate":[-90.56594,41.50205]},{"Name":"Coleman Square Playground","Category":"Public","Address":"Between Cherry & Monroe streets","Hours":"park hours","Handicap Access...":null,"coordinate":[-83.8074,33.817611]},{"Name":"Columbus Park","Category":"Public","Address":"Baxter, Mulberry, Bayard & Worth streets","Hours":"park hours","Handicap Access...":"yes","coordinate":[-92.918807,43.378301]},{"Name":"Corporal John A. Seravalli","Category":"Public","Address":"Hudson & Horatio streets","Hours":"park hours","Handicap Access...":null,"coordinate":[-81.41593,41.240085]},{"Name":"Downing Street Playground","Category":"Public","Address":"downing to carmine streets, Avenue of the Americas","Hours":"park hours","Handicap Access...":null,"coordinate":[-96.686086,30.149384]},{"Name":"Dry Dock Playground","Category":"Public","Address":"East 10 Street & Szold Place, Avenue D","Hours":"nyr","Handicap Access...":null,"coordinate":[-73.976212,40.725326]},{"Name":"Dyckman House Museum","Category":"Public","Address":"Broadway & West 204 Street","Hours":"park hours","Handicap Access...":"no","coordinate":[-73.92311,40.867016]},{"Name":"East River Park (10th Street)","Category":"Public","Address":"Northern extreme of park","Hours":"park hours","Handicap Access...":null,"coordinate":[-81.56371,39.25401]},{"Name":"East River Park (Track Building)","Category":"Public","Address":"East 6 Street & FDR Drive","Hours":"park hours","Handicap Access...":"no","coordinate":[-73.9747705,40.7216193]},{"Name":"Fort Tryon Park (Anne Loftus Playground)","Category":"Public","Address":"Broadway & Dyckman Street","Hours":"park hours","Handicap Access...":null,"coordinate":[-73.9272714,40.8655306]},{"Name":"Fort Tryon Park (Caf\u00c3\u00a9)","Category":"Public","Address":"One Margaret Corbin Drive","Hours":"park hours","Handicap Access...":"no","coordinate":[-73.9326995,40.8608715]},{"Name":"Fort Washington Park (Lily Brown Playground)","Category":"Public","Address":"West 162 Street, east of Riverside Drive","Hours":"park hours","Handicap Access...":null,"coordinate":[-80.096118,26.953168]},{"Name":"Frederick E. Samuel Playground","Category":"Public","Address":"Lenox Avenue, West 150-151 streets","Hours":"park hours","Handicap Access...":null,"coordinate":[-87.936941,43.039873]},{"Name":"Frederick Johnson Park","Category":"Public","Address":"7 Avenue, West 150-151 streets","Hours":"park hours","Handicap Access...":"no","coordinate":[-94.10041,45.3954]},{"Name":"General Douglas MacArthur Park","Category":"Public","Address":"East 49 Street & East River Drive","Hours":"park hours","Handicap Access...":null,"coordinate":[-96.799037,46.826889]},{"Name":"Hamilton Fish Park (Recreation Center)","Category":"Public","Address":"Between Easton Houston & Stanton streets","Hours":"park hours","Handicap Access...":null,"coordinate":[-97.865726,41.56988]},{"Name":"Hansborough Recreation Center","Category":"Public","Address":"35 West 134 Street","Hours":"park hours","Handicap Access...":"no","coordinate":[-87.641921,41.651786]},{"Name":"Holcombe Rucker","Category":"Public","Address":"West 155 St, 8 Ave to Harlem River Drive","Hours":"park hours","Handicap Access...":"no","coordinate":[-79.513082,44.128824]},{"Name":"Inwoood Hill Park (Nature Center)","Category":"Public","Address":"Gaelic Field and Area around Salt Marsh West of In...","Hours":"park hours","Handicap Access...":"no","coordinate":[78.4766810272,22.1991660761]},{"Name":"Inwood Hill Park (Payson Playground)","Category":"Public","Address":"Payson & Dyckman streets","Hours":"park hours","Handicap Access...":"no","coordinate":[-81.31984,41.23897]},{"Name":"Inwood Hill Park (Tennis Courts)","Category":"Public","Address":"Tennis courts & ballfields along Seaman Avenue fro...","Hours":"park hours","Handicap Access...":"no","coordinate":[-6.8841094571,62.0310655278]},{"Name":"Jackie Robinson Park","Category":"Public","Address":"West 149 Street & Bradhurst Avenue","Hours":"park hours","Handicap Access...":"no","coordinate":[-73.9410462,40.8257967]},{"Name":"Jackie Robinson Park (Rec Center)","Category":"Public","Address":"Bradhurst & Edgecombe avenues, West 145 to Wes...","Hours":"park hours","Handicap Access...":null,"coordinate":[-77.739977,35.906267]},{"Name":"John Jay Park & Pool","Category":"Public","Address":"East 76-East 78 streets & Cherokee Place","Hours":"park hours","Handicap Access...":"no","coordinate":[-95.549553,42.758049]},{"Name":"James J. Walker Park (Carmine Rec Center)","Category":"Public","Address":"Hudson, Leroy, Clarkson streets, 7 ave","Hours":"park hours","Handicap Access...":"no","coordinate":[-74.285147,40.580382]},{"Name":"Little Flower Playground","Category":"Public","Address":"Madison Street opposite Jefferson Street","Hours":"park hours","Handicap Access...":"yes","coordinate":[-78.56065,41.4307]},{"Name":"Marcus Garvey Park (Pelham Fritz Recreation Center...","Category":"Public","Address":"18 Mount Morris Park West","Hours":"park hours","Handicap Access...":"no","coordinate":[-73.944931,40.80495]},{"Name":"McCaffrey Playground","Category":"Public","Address":"West 43 St, 8 & 9 avenues","Hours":"park hours","Handicap Access...":"no","coordinate":[12.113532,52.551567]},{"Name":"McKinley Playground","Category":"Public","Address":"Ave A, East 3-East 4 streets","Hours":"nyr","Handicap Access...":"no","coordinate":[73.7656238,33.1455079]},{"Name":"Morningside Park","Category":"Public","Address":"West 123 St & Morningside ave","Hours":"park hours","Handicap Access...":"yes","coordinate":[-73.9549689,40.8100609]},{"Name":"Morningside Playground","Category":"Public","Address":"West 117 St & Morningside Ave","Hours":"park hours","Handicap Access...":"no","coordinate":[6.7271292,0.3372475]},{"Name":"Orville & Wilbur Playground","Category":"Public","Address":"West 156 St & St. Nicholas Avenue","Hours":"park hours","Handicap Access...":"no","coordinate":[-0.574187,43.757456]},{"Name":"Playground 70","Category":"Public","Address":"West End Avenue & West 70 Street","Hours":"park hours","Handicap Access...":"yes","coordinate":[-73.9854454,40.7784773]},{"Name":"Renaissance Playground","Category":"Public","Address":"West 144 Street, between 7 & 8 avenues","Hours":"park hours","Handicap Access...":"no","coordinate":[-73.994743,40.736155]},{"Name":"Riverside Park (Boat Basin)","Category":"Public","Address":"Riverside Drive to Hudson River, West 59th St to C...","Hours":"park hours","Handicap Access...":null,"coordinate":[25.2057292,0.5184021]},{"Name":"Riverside Park (Claremont)","Category":"Public","Address":"West 124 St & Riverside Drive","Hours":"park hours","Handicap Access...":null,"coordinate":[-82.43876,49.40925]},{"Name":"Riverside Park (Ten Mile River Playground)","Category":"Public","Address":"West 148 St & Hudson River","Hours":"park hours","Handicap Access...":null,"coordinate":[-74.039862,40.92871]},{"Name":"Sara D. Roosevelt Park","Category":"Public","Address":"East Houston St to Canal St","Hours":"park hours","Handicap Access...":"yes","coordinate":[11.818668,52.678804]},{"Name":"Sol Bloom Playground","Category":"Public","Address":"Columbus Ave, West 91 to West 92 St, Central Park ...","Hours":"park hours","Handicap Access...":"no","coordinate":[-57.3846579,-25.3129299]},{"Name":"Sol Lain Playground","Category":"Public","Address":"Broadway, Henry St, Samuel Dickstein Place","Hours":"park hours","Handicap Access...":"no","coordinate":[-72.205238,46.068705]},{"Name":"St Nicholas Park","Category":"Public","Address":"West 133 St & St Nicholas Ave","Hours":"park hours","Handicap Access...":"no","coordinate":[-73.948677,40.815692]},{"Name":"St Nicholas Park","Category":"Public","Address":"West 129 St & St Nicholas Terrace","Hours":"park hours","Handicap Access...":"no","coordinate":[-73.951322,40.813567]},{"Name":"St Nicholas Park (Arlington Edinboro Playground)","Category":"Public","Address":"West 140 St & St Nicholas Ave","Hours":"park hours","Handicap Access...":"no","coordinate":[-73.9463959,40.8205827]},{"Name":"Stanley Isaacs","Category":"Public","Address":"East 96-97 Streets & FDR Drive","Hours":"park hours","Handicap Access...":"yes","coordinate":[-84.0764046,9.96203845]},{"Name":"Vesuvio Playground","Category":"Public","Address":"Spring & Thompson Streets","Hours":"park hours","Handicap Access...":"yes","coordinate":[-95.490827,30.149755]},{"Name":"West 59th St Recreation Center & Pool","Category":"Public","Address":"West 59 to West 60 St, Amsterdam to West End Ave","Hours":"park hours","Handicap Access...":null,"coordinate":[-63.178531,18.188094]},{"Name":"100% Playground","Category":"Public","Address":"Glenwood Road, East 100 & East 101 Streets","Hours":"park hours","Handicap Access...":"no","coordinate":[-84.316062,40.582826]},{"Name":"Albermarle Park","Category":"Public","Address":"Albermarle Rd & Dahill Rd","Hours":"park hours","Handicap Access...":"yes","coordinate":[-73.9809109,40.6449843]},{"Name":"Albert J. Parham Playground","Category":"Public","Address":"Adelphi St, Clermont, DeKalb & Willoughby","Hours":"park hours","Handicap Access...":null,"coordinate":[-85.982766,35.725349]},{"Name":"American Playground","Category":"Public","Address":"Noble, Franklin Milton St","Hours":"park hours","Handicap Access...":"yes","coordinate":[-91.5015,29.79604]},{"Name":"Asser Levy Park (Preformance Space)","Category":"Public","Address":"Broadwalk, Surf, Sea Breeze Aves, Ocean Prkwy","Hours":"park hours","Handicap Access...":null,"coordinate":[-85.74024,38.212571]},{"Name":"Bartlett Playground","Category":"Public","Address":"Bartlett St & Throop Ave","Hours":"park hours","Handicap Access...":"no","coordinate":[-73.945645,40.701655]},{"Name":"Bayview Playground","Category":"Public","Address":"Seaview Ave & East 99 St","Hours":"park hours","Handicap Access...":"no","coordinate":[-73.8880295,40.6347968]},{"Name":"Benson Playground","Category":"Public","Address":"Bath Ave btwn Bay 22 & Bay 23 St","Hours":"park hours","Handicap Access...":"no","coordinate":[-90.562331,35.742299]},{"Name":"Bensonhurst Park","Category":"Public","Address":"Gravesend Bay, 21 & Cropsey Aves, Bay Prkwy","Hours":"park hours","Handicap Access...":null,"coordinate":[0.369447,51.442475]},{"Name":"Betsy Head Playground","Category":"Public","Address":"Livonia, Dumont, Hopkinson, Blake aves, Strauss St","Hours":"park hours","Handicap Access...":"no","coordinate":[-77.66861,42.821453]},{"Name":"Bill Brown Memorial Playground","Category":"Public","Address":"Bedford Ave, Ave X to Ave Y, E 24 St","Hours":"park hours","Handicap Access...":"no","coordinate":[7.7518181,45.1039686]},{"Name":"Breukelen Playground","Category":"Public","Address":"Louisiana & Flatlands Ave","Hours":"park hours","Handicap Access...":"no","coordinate":[-91.06123,39.26176]},{"Name":"Brevoort Playground","Category":"Public","Address":"Ralph Ave & Chauncy St","Hours":"park hours","Handicap Access...":null,"coordinate":[-73.9224033,40.6812166]},{"Name":"Bridge Park 2","Category":"Public","Address":"Bridge & Prospect St","Hours":"park hours","Handicap Access...":"no","coordinate":[-85.643428,38.342864]},{"Name":"Brownsville Playground","Category":"Public","Address":"Linden Blvd & Hegeman Ave","Hours":"park hours","Handicap Access...":"no","coordinate":[-90.30275,42.90308]},{"Name":"Bushwick Inlet Park","Category":"Public","Address":"Kent Ave. btwn N 9 St. and N 12 St","Hours":"park hours","Handicap Access...":null,"coordinate":[0.710508,51.247482]},{"Name":"Bushwick Playground & Pool","Category":"Public","Address":"Flushing & Bushwick Ave btwn Garden & Beav...","Hours":"park hours","Handicap Access...":null,"coordinate":[-82.686794,35.497332]},{"Name":"Cadman Plaza & Brooklyn War Memorial","Category":"Public","Address":"Tillary, Cadman Plaza West, Cadman Plaza East, Pro...","Hours":"park hours","Handicap Access...":"no","coordinate":[-71.370055,41.813712]},{"Name":"Campiz Playground","Category":"Public","Address":"Hope St & Metropolitan Ave","Hours":"park hours","Handicap Access...":"no","coordinate":[-84.32687,43.8787]},{"Name":"Carroll Park","Category":"Public","Address":"Court & Smith St","Hours":"park hours","Handicap Access...":null,"coordinate":[-72.7356835,41.831068]},{"Name":"Carver Playground","Category":"Public","Address":"Ralph Ave & Sumpter St","Hours":"park hours","Handicap Access...":"no","coordinate":[-73.9221181,40.6797442]},{"Name":"Century Playground","Category":"Public","Address":"Brighton Beach Ave & West 2 St","Hours":"park hours","Handicap Access...":null,"coordinate":[-88.38291,44.23195]},{"Name":"Chester Playground","Category":"Public","Address":"Chester Street, Sutter Ave","Hours":"park hours","Handicap Access...":"no","coordinate":[-121.312174,38.633401]},{"Name":"City Line Park","Category":"Public","Address":"Atlantic & Fountain Aves","Hours":"park hours","Handicap Access...":"no","coordinate":[-74.4747607,39.6611544]},{"Name":"Col. David Marcus Memorial Playground","Category":"Public","Address":"Coean Parkway, Ave P, East 3 St","Hours":"park hours","Handicap Access...":null,"coordinate":[-92.646276,36.175349]},{"Name":"Columbus Park","Category":"Public","Address":"Adams, Johnson, Fulton, Joralemon St","Hours":"park hours","Handicap Access...":"no","coordinate":[-86.355548,39.48227]},{"Name":"Com. John Barry Park & Playground","Category":"Public","Address":"South of Flushing Ave","Hours":"park hours","Handicap Access...":"no","coordinate":[-120.13207,36.00221]},{"Name":"Comm. Eugene S. Sarsfield Playground","Category":"Public","Address":"East 38 St & Ryder St, Ave M","Hours":"park hours","Handicap Access...":null,"coordinate":[-2.735888,47.690385]},{"Name":"Coney Island","Category":"Public","Address":"Brighton 2nd","Hours":"park hours","Handicap Access...":"yes","coordinate":[-0.138777,50.826257]},{"Name":"Coney Island","Category":"Public","Address":"W 27 St.","Hours":"park hours","Handicap Access...":"yes","coordinate":[-112.39732,43.19251]},{"Name":"Coney Island","Category":"Public","Address":"W 33 St.","Hours":"park hours","Handicap Access...":"yes","coordinate":[-81.70721,41.418355]},{"Name":"Coney Island Beach","Category":"Public","Address":"Corbin Pl to Coney Island Ave","Hours":"park hours","Handicap Access...":"no","coordinate":[19.3006363056,52.1246099075]},{"Name":"Coney Island Beach","Category":"Public","Address":"Stillwell Ave","Hours":"park hours","Handicap Access...":"yes","coordinate":[-84.200876,39.43228]},{"Name":"Coney Island Beach","Category":"Public","Address":"West 16th St.","Hours":"park hours","Handicap Access...":"yes","coordinate":[-79.8977029,43.2315751]},{"Name":"Coney Island Beach","Category":"Public","Address":"W 22 St","Hours":"park hours","Handicap Access...":"yes","coordinate":[-126.8353448,49.7410872]},{"Name":"Cypress Hills Park","Category":"Public","Address":"Blake & Euclid Ave","Hours":"park hours","Handicap Access...":"no","coordinate":[-81.8152728,41.0035656]},{"Name":"Digilio Playground","Category":"Public","Address":"McDonald Ave & Ave F","Hours":"park hours","Handicap Access...":"no","coordinate":[-73.9776053,40.6331631]},{"Name":"Dimattina Playground","Category":"Public","Address":"Hicks & Rapelye St","Hours":"park hours","Handicap Access...":"no","coordinate":[-84.09052,39.30242]},{"Name":"Dr. Martin Luther King Jr. Park","Category":"Public","Address":"Dumont, Blake, Miller Ave","Hours":"park hours","Handicap Access...":"no","coordinate":[-121.581653,37.006598]},{"Name":"Edmonds Playground","Category":"Public","Address":"DeKalb Ave, Adelphi St","Hours":"park hours","Handicap Access...":"no","coordinate":[-73.94711,40.6921]},{"Name":"Ethan Allen Playground","Category":"Public","Address":"New Jersey Ave & Vermont St\/Worthman","Hours":"park hours","Handicap Access...":null,"coordinate":[-74.62904,40.963659]},{"Name":"Fermi Playground","Category":"Public","Address":"Troutman St & Central Ave","Hours":"park hours","Handicap Access...":"no","coordinate":[-73.929035,40.70029]},{"Name":"Friends Field","Category":"Public","Address":"Ave L, East 4 St, McDonald Ave, Ave M","Hours":"park hours","Handicap Access...":null,"coordinate":[28.6148909,47.146331]},{"Name":"Galapo Playground","Category":"Public","Address":"Bedford Ave, Gravesend Neck Rd","Hours":"park hours","Handicap Access...":"no","coordinate":[-97.11064,32.857471]},{"Name":"Garibaldi Playground","Category":"Public","Address":"82 to 83 St at 18 Ave","Hours":"park hours","Handicap Access...":null,"coordinate":[7.6824892,45.0677551]},{"Name":"Glenwood Playground","Category":"Public","Address":"Ralph Ave & Farragut Rd","Hours":"park hours","Handicap Access...":"yes","coordinate":[-73.919172,40.63747]},{"Name":"Gowanus Playground","Category":"Public","Address":"Wyckoff St btwn Bond & Hoyt St","Hours":"park hours","Handicap Access...":"no","coordinate":[-74.172922,41.009542]},{"Name":"Gravesend Park","Category":"Public","Address":"18 Ave & 56 St","Hours":"park hours","Handicap Access...":"no","coordinate":[-73.5280885,46.0805769]},{"Name":"Greene Playground","Category":"Public","Address":"Greene & Washington Ave","Hours":"park hours","Handicap Access...":"no","coordinate":[-70.03907,44.16665]},{"Name":"Greenwood Playground","Category":"Public","Address":"Fort Hamilton Pkwy, Greenwood, East 5 St","Hours":"park hours","Handicap Access...":null,"coordinate":[-96.164165,37.979471]},{"Name":"Hamilton-Metz Field","Category":"Public","Address":"Albany, E New York, Lefferts Ave","Hours":"park hours","Handicap Access...":"no","coordinate":[-73.754968,42.651167]},{"Name":"Hattie Carthan Playground","Category":"Public","Address":"East of Marcy St","Hours":"park hours","Handicap Access...":"no","coordinate":[-85.76652,35.20126]},{"Name":"Heckscher Playground","Category":"Public","Address":"Grove St to Linden St","Hours":"park hours","Handicap Access...":"yes","coordinate":[-121.083831,38.021312]},{"Name":"Herbert Von King Park","Category":"Public","Address":"Greene, Marcy, Lafayette, Tompkins Ave","Hours":"park hours","Handicap Access...":"yes","coordinate":[-73.553767,42.634358]},{"Name":"Herman Dolgon Playground","Category":"Public","Address":"Ave V & Hostrand Ave","Hours":"park hours","Handicap Access...":"no","coordinate":[-47.6562901,-23.3032568]},{"Name":"Jackie Robinson Park","Category":"Public","Address":"Malcolm X Blvd btwn Chauncey and Marion St","Hours":"park hours","Handicap Access...":"yes","coordinate":[-90.196484,35.214534]},{"Name":"Jackie Robinson Playground","Category":"Public","Address":"Sullivan Place & Franklin Ave, Montgomery St","Hours":"park hours","Handicap Access...":"no","coordinate":[-86.241115,32.315232]},{"Name":"Jesse Owens Playground","Category":"Public","Address":"John J. Carty Park","Hours":"park hours","Handicap Access...":null,"coordinate":[-77.7549,40.91747]},{"Name":"John Paul Jones Park","Category":"Public","Address":"Shore Prkwy, Fort Hamilton Parkway, 101 St","Hours":"park hours","Handicap Access...":null,"coordinate":[-90.969862,38.338107]},{"Name":"Kaiser Park","Category":"Public","Address":"South of Gravesend Bay, Southeast of Path, Northea...","Hours":"park hours","Handicap Access...":"no","coordinate":[35.3780338,33.5618345]},{"Name":"Kennedy King Playground","Category":"Public","Address":"East 93 St & Lenox Rd","Hours":"park hours","Handicap Access...":"no","coordinate":[-75.643521,41.700635]},{"Name":"Lincoln Terrace Park","Category":"Public","Address":"Buffalo Ave\/Protal St\/New York Ave","Hours":"park hours","Handicap Access...":"no","coordinate":[-75.4652471468,42.751210955]},{"Name":"Lincoln Terrace Park (Arthur S. Somers Playground)","Category":"Public","Address":"East New York, Rochester Ave, Eastern Prkwy, Buffa...","Hours":"park hours","Handicap Access...":"no","coordinate":[-78.878392,42.886717]},{"Name":"Linden Park","Category":"Public","Address":"Stanley Ave, Linden Blvd","Hours":"park hours","Handicap Access...":"no","coordinate":[-74.34317,40.65737]},{"Name":"Lindower Park","Category":"Public","Address":"Mill & Strickland Ave, 60 St","Hours":"park hours","Handicap Access...":null,"coordinate":[-87.868784,41.814332]},{"Name":"Marine Park Nature Center","Category":"Public","Address":"East 33rd St & Ave U","Hours":"park hours","Handicap Access...":"yes","coordinate":[-100.8932971,32.7091676]},{"Name":"Marion-Hopkinson Playground","Category":"Public","Address":"Hopkinson Ave & Marion St","Hours":"park hours","Handicap Access...":"no","coordinate":[-73.914178,40.681408]},{"Name":"McDonald Playground","Category":"Public","Address":"McDonald Ave, btwn Ave s & T","Hours":"park hours","Handicap Access...":null,"coordinate":[-80.724245,41.163669]},{"Name":"McLaughlin Park","Category":"Public","Address":"Tillary St, Jay St, Cathedral Pl, Bridge St","Hours":"park hours","Handicap Access...":"no","coordinate":[-85.031041,40.419334]},{"Name":"Metropolitan Pool","Category":"Public","Address":"Southeast corner of Bedford & Metropolitan Ave","Hours":"park hours","Handicap Access...":"no","coordinate":[-0.467504,52.136381]},{"Name":"Mt. Prospect Park","Category":"Public","Address":"Eastern Pkwy, Underhill Ave","Hours":"park hours","Handicap Access...":"no","coordinate":[-73.96624,40.676975]},{"Name":"Newport Playground","Category":"Public","Address":"Newport Ave & osburn St","Hours":"park hours","Handicap Access...":"no","coordinate":[-2.16232,53.43462]},{"Name":"Nostrand Playground","Category":"Public","Address":"Nostrand & Foster Ave","Hours":"park hours","Handicap Access...":"no","coordinate":[-87.650437,41.979724]},{"Name":"Ocean Hill Playground","Category":"Public","Address":"Bergen St, Rockaway Ave, Dean Street","Hours":"park hours","Handicap Access...":"no","coordinate":[-90.199585,38.626426]},{"Name":"Oracle Playground","Category":"Public","Address":"Adelphi & Myrtle Ave","Hours":"park hours","Handicap Access...":"no","coordinate":[-73.948769,40.695286]},{"Name":"Osborn Playground","Category":"Public","Address":"Linden Blvd & Osborn St","Hours":"park hours","Handicap Access...":"no","coordinate":[-73.9050979,40.6551727]},{"Name":"Paerdegat Park","Category":"Public","Address":"Foster Ave, East 40-41 St","Hours":"park hours","Handicap Access...":"no","coordinate":[-79.37566,40.30423]},{"Name":"Park Slope Playground","Category":"Public","Address":"Berkeley St & Lincoln Pl","Hours":"park hours","Handicap Access...":"no","coordinate":[-121.29318,38.891574]},{"Name":"Parkside Playground","Category":"Public","Address":"Parkside, Beford & Rodgers Ave","Hours":"park hours","Handicap Access...":"no","coordinate":[-87.528,41.7084]},{"Name":"Pat Perlato Playground","Category":"Public","Address":"Falmouth St & Oriental Ave","Hours":"park hours","Handicap Access...":"no","coordinate":[-70.59878,41.69091]},{"Name":"PFC Thomas Norton Memorial Playground","Category":"Public","Address":"Nostrand Ave & Marine Pkwy","Hours":"park hours","Handicap Access...":"no","coordinate":[-73.944574,40.614804]},{"Name":"Pierrepont Playground","Category":"Public","Address":"Furman St, Pierrepont Pl","Hours":"park hours","Handicap Access...":"no","coordinate":[16.567778,53.178611]},{"Name":"Pink Playground","Category":"Public","Address":"Stanley Ave & Eldert Lane","Hours":"park hours","Handicap Access...":"no","coordinate":[-73.8620472,40.6662584]},{"Name":"Police Officer Reinaldo, Salgado Playground","Category":"Public","Address":"Madison St & Patchen Ave","Hours":"park hours","Handicap Access...":"no","coordinate":[-73.9269694,40.6874377]},{"Name":"Potomac Playground","Category":"Public","Address":"Tompkins Ave & Hasley St","Hours":"park hours","Handicap Access...":"no","coordinate":[-73.9437474,40.6825129]},{"Name":"Pratt Playground","Category":"Public","Address":"Willoughby Ave, Emerson Pl","Hours":"park hours","Handicap Access...":null,"coordinate":[-81.402335,41.59116]},{"Name":"PS 1 Playground","Category":"Public","Address":"46 % 47 streets, 3 Ave","Hours":"park hours","Handicap Access...":"no","coordinate":[78.571711,17.353725]},{"Name":"Rappaport Playground","Category":"Public","Address":"52-53 St, Fort Hamilton Parkway","Hours":"park hours","Handicap Access...":"no","coordinate":[-74.018912,40.624041]},{"Name":"Red Hook Park","Category":"Public","Address":"Otsega, Bay, Hicks, Lorraine, Court, Halleck st","Hours":"park hours","Handicap Access...":"no","coordinate":[-93.614857,45.281273]},{"Name":"Red Hook Park","Category":"Public","Address":"Columbia and Bay st, southeast of Halleck st sidew...","Hours":"park hours","Handicap Access...":"no","coordinate":[-73.129056,3.065088]},{"Name":"Red Hook Park (Coffey Park Playground","Category":"Public","Address":"King, Richards, & Dwight St","Hours":"park hours","Handicap Access...":"no","coordinate":[-1.93446,50.76498]},{"Name":"Red Hook Park (Recreation Center)","Category":"Public","Address":"Otsego, Bay, Hicks, Lorraine, Court, Halleck St","Hours":"park hours","Handicap Access...":"no","coordinate":[-83.888965,43.595129]},{"Name":"Roebling Playground","Category":"Public","Address":"Wilson & Lee Ave, Taylor St","Hours":"park hours","Handicap Access...":"no","coordinate":[-91.022648,44.828017]},{"Name":"Rolf Henry Playground","Category":"Public","Address":"New York & Clarkson Ave","Hours":"park hours","Handicap Access...":"no","coordinate":[-73.7386825,40.6573675]},{"Name":"Rudd Playground","Category":"Public","Address":"Aberdeen St & Bushwick Ave","Hours":"park hours","Handicap Access...":"no","coordinate":[-71.102299,42.339174]},{"Name":"Russell Pederson Playground","Category":"Public","Address":"Colonial Rd, 83 to 85 St","Hours":"park hours","Handicap Access...":null,"coordinate":[-76.829694,40.299256]},{"Name":"Saratoga Square Park","Category":"Public","Address":"Howard Ave, Halsey, Macon St","Hours":"park hours","Handicap Access...":"no","coordinate":[-86.019693,37.330886]},{"Name":"Shore Road Park","Category":"Public","Address":"72nd St to Harbor View","Hours":"park hours","Handicap Access...":null,"coordinate":[-72.522607,41.275867]},{"Name":"Shore Road Park","Category":"Public","Address":"92nd St to 4 Ave, lower half by expressway","Hours":"park hours","Handicap Access...":null,"coordinate":[11.408966,48.714284]},{"Name":"Slope Park","Category":"Public","Address":"6 Ave Bet 18 & 19 Sts","Hours":"park hours","Handicap Access...":null,"coordinate":[21.993837,50.030318]},{"Name":"Sperandeo Brothers","Category":"Public","Address":"Atlantic Ave & Elton St","Hours":"park hours","Handicap Access...":"no","coordinate":[-73.8841986,40.6781571]},{"Name":"Star Spangled Banner Playground","Category":"Public","Address":"Franklin & Wiloughby Ave","Hours":"park hours","Handicap Access...":"no","coordinate":[-92.555751,47.511614]},{"Name":"Sternberg Park","Category":"Public","Address":"Montrose Ave, Boerum, Lorimer, Leonard St","Hours":"park hours","Handicap Access...":"yes","coordinate":[-83.142715,42.865307]},{"Name":"Stockton Playground","Category":"Public","Address":"Marcy & Park Ave","Hours":"park hours","Handicap Access...":"no","coordinate":[-40.1499981,-3.1191805]},{"Name":"Stroud Playground","Category":"Public","Address":"Classon Ave & Sterling Place","Hours":"park hours","Handicap Access...":"no","coordinate":[-72.8398362,40.8056787]},{"Name":"Tiger Playground","Category":"Public","Address":"Evergreen Ave & Eldert St","Hours":"park hours","Handicap Access...":"yes","coordinate":[-73.911692,40.688125]},{"Name":"Tilden Playground","Category":"Public","Address":"Tilden Ave, East 48 to East 49 St","Hours":"park hours","Handicap Access...":"no","coordinate":[-89.682597,38.211994]},{"Name":"Underhill Playground","Category":"Public","Address":"Underhill Ave & Prospect Pl","Hours":"park hours","Handicap Access...":"no","coordinate":[-73.965974,40.67706]},{"Name":"Underwood Park","Category":"Public","Address":"Lafayette & Waverly Ave","Hours":"park hours","Handicap Access...":"yes","coordinate":[-92.01987,30.218995]},{"Name":"West 2nd St Comfort Station","Category":"Public","Address":"W 2nd St","Hours":"park hours","Handicap Access...":"no","coordinate":[-119.814969,39.52658]},{"Name":"West 8nd St CS","Category":"Public","Address":"W 8 St","Hours":"park hours","Handicap Access...":"no","coordinate":[-80.58764,40.62419]},{"Name":"Willoughby Playground","Category":"Public","Address":"Tompkins & Willoughby Ave","Hours":"park hours","Handicap Access...":"no","coordinate":[-75.95214,42.11496]},{"Name":"Wingate Park","Category":"Public","Address":"Brooklyn Ave & Rutland Rd","Hours":"park hours","Handicap Access...":"no","coordinate":[-73.945336,40.659718]},{"Name":"Woods Playground","Category":"Public","Address":"Bergen St & Utica Ave","Hours":"park hours","Handicap Access...":"no","coordinate":[11.364756,52.110884]},{"Name":"Chipotle Mexican Grill","Category":"Fast Food","Address":"2843 Broadway, New York, NY 10025","Hours":"Store Hours","Handicap Access...":null,"coordinate":[-73.966823,40.80451]},{"Name":"Chipotle Mexican Grill","Category":"Fast Food","Address":"1497 3rd Ave","Hours":"Store Hours","Handicap Access...":null,"coordinate":[-99.370603,49.86847]},{"Name":"Chipotle Mexican Grill","Category":"Fast Food","Address":"185 Montague St","Hours":"Store Hours","Handicap Access...":null,"coordinate":[144.952751,-37.8336]},{"Name":"Chipotle Mexican Grill","Category":"Fast Food","Address":"1153 3rd Ave","Hours":"Store Hours","Handicap Access...":null,"coordinate":[-105.542416,50.402511]},{"Name":"Chipotle Mexican Grill","Category":"Fast Food","Address":"625 Broadway","Hours":"Store Hours","Handicap Access...":null,"coordinate":[-82.118442,42.950074]},{"Name":"Chipotle Mexican Grill","Category":"Fast Food","Address":"71 Spring St","Hours":"Store Hours","Handicap Access...":null,"coordinate":[152.936052,-29.703607]},{"Name":"Chipotle Mexican Grill","Category":"Fast Food","Address":"275 Greenwich St","Hours":"Store Hours","Handicap Access...":null,"coordinate":[-74.011039,40.715177]},{"Name":"Chipotle Mexican Grill","Category":"Fast Food","Address":"680 Ave of the Americas","Hours":"Store Hours","Handicap Access...":null,"coordinate":[-73.993384,40.741751]},{"Name":"Chipotle Mexican Grill","Category":"Fast Food","Address":"55 E 8th St","Hours":"Store Hours","Handicap Access...":null,"coordinate":[-123.069367,49.316457]},{"Name":"Chipotle Mexican Grill","Category":"Fast Food","Address":"100 Maiden Ln","Hours":"Store Hours","Handicap Access...":null,"coordinate":[-0.12795,51.54212]},{"Name":"Chipotle Mexican Grill","Category":"Fast Food","Address":"140 Court St, Brooklyn","Hours":"Store Hours","Handicap Access...":null,"coordinate":[-73.99283,40.68923]},{"Name":"Chipotle Mexican Grill","Category":"Fast Food","Address":"117 E 14th St, Manhattan","Hours":"Store Hours","Handicap Access...":null,"coordinate":[-73.988978,40.734265]},{"Name":"Chipotle Mexican Grill","Category":"Fast Food","Address":"405 Ave of the Americas","Hours":"Store Hours","Handicap Access...":null,"coordinate":[-73.999907,40.733653]},{"Name":"Chipotle Mexican Grill","Category":"Fast Food","Address":"501 7th Ave","Hours":"Store Hours","Handicap Access...":null,"coordinate":[-73.989076,40.753019]},{"Name":"Chipotle Mexican Grill","Category":"Fast Food","Address":"19 St Marks Pl","Hours":"Store Hours","Handicap Access...":null,"coordinate":[-97.113543,49.860382]},{"Name":"Chipotle Mexican Grill","Category":"Fast Food","Address":"9 W 42nd St","Hours":"Store Hours","Handicap Access...":null,"coordinate":[-85.67867,40.07273]},{"Name":"Chipotle Mexican Grill","Category":"Fast Food","Address":"304 W 34th St","Hours":"Store Hours","Handicap Access...":null,"coordinate":[-82.167018,41.438952]},{"Name":"Chipotle Mexican Grill","Category":"Fast Food","Address":"2 Broadway","Hours":"Store Hours","Handicap Access...":null,"coordinate":[153.313146,-27.923121]},{"Name":"Chipotle Mexican Grill","Category":"Fast Food","Address":"25 W 45th St","Hours":"Store Hours","Handicap Access...":null,"coordinate":[-73.980862,40.756086]},{"Name":"Chipotle Mexican Grill","Category":"Fast Food","Address":"464 Park Ave S","Hours":"Store Hours","Handicap Access...":null,"coordinate":[-81.45467,40.64511]},{"Name":"Chipotle Mexican Grill","Category":"Fast Food","Address":"149 8th Ave","Hours":"Store Hours","Handicap Access...":null,"coordinate":[147.412798,-19.661211]},{"Name":"Chipotle Mexican Grill","Category":"Fast Food","Address":"620 9th Ave","Hours":"Store Hours","Handicap Access...":null,"coordinate":[-105.557976,50.395936]},{"Name":"Chipotle Mexican Grill","Category":"Fast Food","Address":"864 Broadway","Hours":"Store Hours","Handicap Access...":null,"coordinate":[-83.079068,42.271121]},{"Name":"Chipotle Mexican Grill","Category":"Fast Food","Address":"125 E 23rd St","Hours":"Store Hours","Handicap Access...":null,"coordinate":[-82.165576,41.449509]},{"Name":"Chipotle Mexican Grill","Category":"Fast Food","Address":"200 Varick St","Hours":"Store Hours","Handicap Access...":null,"coordinate":[-74.005296,40.728361]},{"Name":"Chipotle Mexican Grill","Category":"Fast Food","Address":"269 Amsterdam Ave","Hours":"Store Hours","Handicap Access...":null,"coordinate":[-73.981168,40.778896]},{"Name":"Chipotle Mexican Grill","Category":"Fast Food","Address":"129 W 48th St","Hours":"Store Hours","Handicap Access...":null,"coordinate":[-93.28081,44.91573]},{"Name":"Chipotle Mexican Grill","Category":"Fast Food","Address":"854 8th Ave","Hours":"Store Hours","Handicap Access...":null,"coordinate":[150.794545,-33.936574]},{"Name":"Chipotle Mexican Grill","Category":"Fast Food","Address":"235 W 56th St","Hours":"Store Hours","Handicap Access...":null,"coordinate":[-73.982515,40.76594]},{"Name":"Chipotle Mexican Grill","Category":"Fast Food","Address":"274 Madison Ave","Hours":"Store Hours","Handicap Access...":null,"coordinate":[-73.980417,40.751252]},{"Name":"Chipotle Mexican Grill","Category":"Fast Food","Address":"320 Park Ave","Hours":"Store Hours","Handicap Access...":null,"coordinate":[-73.973863,40.757642]},{"Name":"Chipotle Mexican Grill","Category":"Fast Food","Address":"283 7th Ave","Hours":"Store Hours","Handicap Access...":null,"coordinate":[150.798057,-33.939981]},{"Name":"Chipotle Mexican Grill","Category":"Fast Food","Address":"281 Broadway","Hours":"Store Hours","Handicap Access...":null,"coordinate":[151.192348,-33.884361]},{"Name":"Chipotle Mexican Grill","Category":"Fast Food","Address":"1379 Ave of the Americas","Hours":"Store Hours","Handicap Access...":null,"coordinate":[-73.97792,40.76363]},{"Name":"Chipotle Mexican Grill","Category":"Fast Food","Address":"463 86th At, Broadway","Hours":"Store Hours","Handicap Access...":null,"coordinate":[-81.62506,41.439258]},{"Name":"Chipotle Mexican Grill","Category":"Fast Food","Address":"1288 1st Ave","Hours":"Store Hours","Handicap Access...":null,"coordinate":[-99.373984,49.871482]},{"Name":"Chipotle Mexican Grill","Category":"Fast Food","Address":"1 Metrotech Center, Brooklyn","Hours":"Store Hours","Handicap Access...":null,"coordinate":[-73.987122,40.693297]},{"Name":"Chipotle Mexican Grill","Category":"Fast Food","Address":"24 E 12th St","Hours":"Store Hours","Handicap Access...":null,"coordinate":[-79.862278,43.243084]},{"Name":"Chipotle Mexican Grill","Category":"Fast Food","Address":"504 Ave of the Americas","Hours":"Store Hours","Handicap Access...":null,"coordinate":[-73.99717,40.736472]},{"Name":"Chipotle Mexican Grill","Category":"Fast Food","Address":"234 5th Ave","Hours":"Store Hours","Handicap Access...":null,"coordinate":[-75.691973,45.399621]},{"Name":"Chipotle Mexican Grill","Category":"Fast Food","Address":"604 2nd Ave","Hours":"Store Hours","Handicap Access...":null,"coordinate":[150.755917,-33.713577]},{"Name":"Chipotle Mexican Grill","Category":"Fast Food","Address":"28 W 40th St","Hours":"Store Hours","Handicap Access...":null,"coordinate":[-82.19989,41.43407]},{"Name":"Chipotle Mexican Grill","Category":"Fast Food","Address":"150 E 52nd St","Hours":"Store Hours","Handicap Access...":null,"coordinate":[-73.970638,40.757578]},{"Name":"Chipotle Mexican Grill","Category":"Fast Food","Address":"1020 3rd Ave","Hours":"Store Hours","Handicap Access...":null,"coordinate":[-99.370106,49.86843]},{"Name":"Chipotle Mexican Grill","Category":"Fast Food","Address":"2298 Broadway","Hours":"Store Hours","Handicap Access...":null,"coordinate":[-123.156613,49.263569]},{"Name":"Chipotle Mexican Grill","Category":"Fast Food","Address":"4009 Broadway","Hours":"Store Hours","Handicap Access...":null,"coordinate":[-82.669497,40.363376]},{"Name":"barnes & nobles","Category":"Book Store","Address":"2289 Broadway","Hours":"9am-10pm","Handicap Access...":null,"coordinate":[-122.322984,49.043428]},{"Name":"barnes & nobles","Category":"Book Store","Address":"106 Court St","Hours":"9am-10pm","Handicap Access...":null,"coordinate":[150.730447,-30.746143]},{"Name":"barnes & nobles","Category":"Book Store","Address":"150 E 86th St","Hours":"9am-10pm","Handicap Access...":null,"coordinate":[-86.153574,39.912909]},{"Name":"barnes & nobles","Category":"Book Store","Address":"555 Fifth Ave","Hours":"9am-9pm","Handicap Access...":null,"coordinate":[-73.978774,40.755993]},{"Name":"nordstrom rack","Category":"Other","Address":"60 E 14th St","Hours":"10am-10pm","Handicap Access...":null,"coordinate":[-86.10458,42.78468]},{"Name":"crate and barrel","Category":"Other","Address":"650 Madison Ave","Hours":"10am-8pm","Handicap Access...":null,"coordinate":[-73.971299,40.764043]},{"Name":"whole foods","Category":"Other","Address":"10 columbus Cir","Hours":"7am-11pm","Handicap Access...":null,"coordinate":[153.134501,-30.284676]},{"Name":"whole foods","Category":"Other","Address":"226 E 57th St","Hours":"8am-11pm","Handicap Access...":null,"coordinate":[-73.966385,40.759385]},{"Name":"whole foods","Category":"Other","Address":"250 7th Ave","Hours":"7:30am-11pm","Handicap Access...":null,"coordinate":[150.79805,-33.940772]},{"Name":"whole foods","Category":"Other","Address":"214 3rd St","Hours":"8am-11pm","Handicap Access...":null,"coordinate":[138.065195,-29.645791]},{"Name":"whole foods","Category":"Other","Address":"808 Columbus Ave","Hours":"7:30am-11pm","Handicap Access...":null,"coordinate":[-83.43295,39.54153]},{"Name":"apple store","Category":"Other","Address":"767 5th ave","Hours":"24\/7","Handicap Access...":null,"coordinate":[-75.697459,45.397608]},{"Name":"apple store","Category":"Other","Address":"1981 Broadway","Hours":"9am-9pm","Handicap Access...":null,"coordinate":[-89.346225,48.356968]},{"Name":"apple store","Category":"Other","Address":"103 Prince St","Hours":"9am-9pm","Handicap Access...":null,"coordinate":[152.934739,-29.688734]},{"Name":"apple store","Category":"Other","Address":"401 W 14th St","Hours":"9am-9pm","Handicap Access...":null,"coordinate":[-82.172467,41.457012]},{"Name":"henri bendel","Category":"Other","Address":"715 5th Ave","Hours":"10am-8pm","Handicap Access...":null,"coordinate":[-106.655635,52.138578]},{"Name":"NYC Police Department","Category":"Other","Address":"25 Central Ave","Hours":"Store Hours","Handicap Access...":null,"coordinate":[153.107832,-27.200792]},{"Name":"NYC Police Department","Category":"Other","Address":"19 1\/2 Pitt St","Hours":"Store Hours","Handicap Access...":null,"coordinate":[-91.75627,45.40442]},{"Name":"NYC Police Department","Category":"Other","Address":"235 E 20th St","Hours":"Store Hours","Handicap Access...":null,"coordinate":[-82.16444,41.452629]},{"Name":"NYC Police Department","Category":"Other","Address":"19 Elizabeth St","Hours":"Store Hours","Handicap Access...":null,"coordinate":[151.359929,-33.401825]},{"Name":"NYC Police Department","Category":"Other","Address":"321 E 5th St","Hours":"Store Hours","Handicap Access...":null,"coordinate":[-81.74818,40.270715]},{"Name":"The Westin New York","Category":"Hotel","Address":"270 W 43rd St","Hours":"Store Hours","Handicap Access...":null,"coordinate":[-80.75386,39.9703]},{"Name":"The New School","Category":"Other","Address":"72 5th Ave, 3rd Floor","Hours":"10am-6pm","Handicap Access...":null,"coordinate":[-80.651461,41.12638]},{"Name":"Foundation Center","Category":"Other","Address":"79 5th Ave","Hours":"10am-5pm","Handicap Access...":null,"coordinate":[153.467323,-28.124051]},{"Name":"Bed Bath & Beyond","Category":"Other","Address":"1932 Broadway","Hours":"9am-10pm","Handicap Access...":null,"coordinate":[-123.149038,49.263667]},{"Name":"Bed Bath & Beyond","Category":"Other","Address":"410 East 61st St and 1st Ave","Hours":"9am-9pm","Handicap Access...":null,"coordinate":[-6.413374,41.689627]},{"Name":"Royalton Hotel","Category":"Hotel","Address":"44 W 44th St","Hours":"Store Hours","Handicap Access...":null,"coordinate":[-81.71488,41.41817]},{"Name":"Soho Grand Hotel","Category":"Hotel","Address":"310 W Broadway","Hours":"Store Hours","Handicap Access...":null,"coordinate":[-123.111748,49.26287]},{"Name":"J. Crew","Category":"Other","Address":"235 W Broadway","Hours":"Store Hours","Handicap Access...":null,"coordinate":[-123.110097,49.263215]},{"Name":"J. Crew","Category":"Other","Address":"91 5th Ave","Hours":"Store Hours","Handicap Access...":null,"coordinate":[153.466416,-28.124472]},{"Name":"J. Crew","Category":"Other","Address":"769 Madison Ave","Hours":"Store Hours","Handicap Access...":null,"coordinate":[-123.008907,49.27776]},{"Name":"J. Crew","Category":"Other","Address":"30 Rockefeller Center","Hours":"Store Hours","Handicap Access...":null,"coordinate":[-73.978096,40.758712]},{"Name":"Grand Hyatt","Category":"Hotel","Address":"E 42nd St","Hours":"Store Hours","Handicap Access...":null,"coordinate":[-73.979642,40.752964]},{"Name":"New York Presbyterian Hospital","Category":"Other","Address":"170 Williams St","Hours":"Store Hours","Handicap Access...":null,"coordinate":[141.454589,-31.950929]},{"Name":"New York Presbyterian Morgan","Category":"Other","Address":"3959 Broadway","Hours":"Store Hours","Handicap Access...":null,"coordinate":[-127.176606,54.781143]},{"Name":"Bellevue Hospital Center","Category":"Other","Address":"462 1st Ave","Hours":"Store Hours","Handicap Access...":null,"coordinate":[-79.259597,43.013582]},{"Name":"Mount Sinai Hospital","Category":"Other","Address":"1 Gustave L. Levy Pl","Hours":"Store Hours","Handicap Access...":null,"coordinate":[-73.953779,40.789038]},{"Name":"New York Methodist Hospital","Category":"Other","Address":"506 6th St","Hours":"Store Hours","Handicap Access...":null,"coordinate":[-80.231967,44.491985]},{"Name":"McDonalds","Category":"Fast Food","Address":"317 Broadway","Hours":"5am-10pm","Handicap Access...":null,"coordinate":[143.225123,-36.076501]},{"Name":"McDonalds","Category":"Fast Food","Address":"52 Fulton St\/Cliff St","Hours":"24\/7","Handicap Access...":null,"coordinate":[-70.91755,42.52816]},{"Name":"McDonalds","Category":"Fast Food","Address":"160 Broadway","Hours":"24\/7","Handicap Access...":null,"coordinate":[-74.010329,40.70959]},{"Name":"McDonalds","Category":"Fast Food","Address":"167 Chambers St","Hours":"24\/7","Handicap Access...":null,"coordinate":[151.206475,-33.887857]},{"Name":"McDonalds","Category":"Fast Food","Address":"262 Canal St","Hours":"24\/7","Handicap Access...":null,"coordinate":[-113.406873,51.034215]},{"Name":"McDonalds","Category":"Fast Food","Address":"26 Bowery","Hours":"6am-11pm","Handicap Access...":null,"coordinate":[144.963924,-37.519025]},{"Name":"McDonalds","Category":"Fast Food","Address":"213 Madison St","Hours":"6am-12am","Handicap Access...":null,"coordinate":[-81.795425,39.551669]},{"Name":"McDonalds","Category":"Fast Food","Address":"114 Delancey St","Hours":"Store Hours","Handicap Access...":null,"coordinate":[153.25132,-27.520143]},{"Name":"McDonalds","Category":"Fast Food","Address":"208 Varrick St","Hours":"Store Hours","Handicap Access...":null,"coordinate":[115.999054,-30.624531]},{"Name":"McDonalds","Category":"Fast Food","Address":"136 W 3rd St","Hours":"24\/7","Handicap Access...":null,"coordinate":[-79.8843,43.230984]},{"Name":"McDonalds","Category":"Fast Food","Address":"724 Broadway","Hours":"Store Hours","Handicap Access...":null,"coordinate":[-75.835238,44.925652]},{"Name":"McDonalds","Category":"Fast Food","Address":"102-106 1st Ave at 5th Ave","Hours":"Store Hours","Handicap Access...":null,"coordinate":[-80.09092,26.337955]},{"Name":"McDonalds","Category":"Fast Food","Address":"82 Court St","Hours":"5:30am-3am","Handicap Access...":null,"coordinate":[150.726558,-30.74757]},{"Name":"McDonalds","Category":"Fast Food","Address":"404 E 14th St","Hours":"Store Hours","Handicap Access...":null,"coordinate":[-82.53182,39.10986]},{"Name":"McDonalds","Category":"Fast Food","Address":"541 6th Ave & 14th St","Hours":"24\/7","Handicap Access...":null,"coordinate":[-125.247237,50.018161]},{"Name":"McDonalds","Category":"Fast Food","Address":"420 Fulton St","Hours":"5am-12am","Handicap Access...":null,"coordinate":[-82.93419,41.50822]},{"Name":"McDonalds","Category":"Fast Food","Address":"39 Union Sq W","Hours":"Store Hours","Handicap Access...":null,"coordinate":[-2.6422,53.40119]},{"Name":"McDonalds","Category":"Fast Food","Address":"325 Grove St","Hours":"Store Hours","Handicap Access...":null,"coordinate":[-59.953247,46.12293]},{"Name":"McDonalds","Category":"Fast Food","Address":"395 Flatbush Ave","Hours":"Store Hours","Handicap Access...":null,"coordinate":[-73.971298,40.675911]},{"Name":"McDonalds","Category":"Fast Food","Address":"686 6th Ave","Hours":"Store Hours","Handicap Access...":null,"coordinate":[150.794278,-33.942373]},{"Name":"McDonalds","Category":"Fast Food","Address":"26 E 23rd St","Hours":"24\/7","Handicap Access...":null,"coordinate":[-79.851671,43.239618]},{"Name":"McDonalds","Category":"Fast Food","Address":"336 E 23rd St","Hours":"Store Hours","Handicap Access...":null,"coordinate":[-82.161858,41.449485]},{"Name":"McDonalds","Category":"Fast Food","Address":"401 Park Ave S","Hours":"Store Hours","Handicap Access...":null,"coordinate":[-73.983895,40.743385]},{"Name":"McDonalds","Category":"Fast Food","Address":"480 3rd Ave & 33rd St","Hours":"24\/7","Handicap Access...":null,"coordinate":[-99.470519,50.227418]},{"Name":"McDonalds","Category":"Fast Food","Address":"341 5th Ave","Hours":"24\/7","Handicap Access...":null,"coordinate":[150.79816,-33.945685]},{"Name":"McDonalds","Category":"Fast Food","Address":"809\/811 6th Ave\/28th","Hours":"Store Hours","Handicap Access...":null,"coordinate":[-73.990648,40.74626]},{"Name":"McDonalds","Category":"Fast Food","Address":"729 2nd Ave\/29th St","Hours":"Store Hours","Handicap Access...":null,"coordinate":[-125.249379,50.011148]},{"Name":"McDonalds","Category":"Fast Food","Address":"972 6th Ave","Hours":"Store Hours","Handicap Access...":null,"coordinate":[150.7942,-33.942362]},{"Name":"McDonalds","Category":"Fast Food","Address":"280 Madison Ave","Hours":"Store Hours","Handicap Access...":null,"coordinate":[-80.488939,43.439103]},{"Name":"McDonalds","Category":"Fast Food","Address":"151 West 34th St & 7th Ave","Hours":"Store Hours","Handicap Access...":null,"coordinate":[-79.912368,43.240935]},{"Name":"McDonalds","Category":"Fast Food","Address":"429 7th Ave","Hours":"Store Hours","Handicap Access...":null,"coordinate":[-96.554676,50.712968]},{"Name":"McDonalds","Category":"Fast Food","Address":"18 E 42nd St","Hours":"Store Hours","Handicap Access...":null,"coordinate":[-73.93878,40.655655]},{"Name":"McDonalds","Category":"Fast Food","Address":"335 8th Ave","Hours":"Store Hours","Handicap Access...":null,"coordinate":[150.798316,-33.937076]},{"Name":"McDonalds","Category":"Fast Food","Address":"490 8th Ave","Hours":"24\/7","Handicap Access...":null,"coordinate":[150.794823,-33.936612]},{"Name":"McDonalds","Category":"Fast Food","Address":"556 7th Ave","Hours":"Store Hours","Handicap Access...":null,"coordinate":[118.340584,-22.240056]},{"Name":"McDonalds","Category":"Fast Food","Address":"14 E 47th St","Hours":"24\/7","Handicap Access...":null,"coordinate":[-87.62543,41.80941]},{"Name":"McDonalds","Category":"Fast Food","Address":"1872 3rd Ave at 103 Rd St","Hours":"Store Hours","Handicap Access...":null,"coordinate":[-117.086433,32.641227]},{"Name":"McDonalds","Category":"Fast Food","Address":"2549 Broadway & 96th St","Hours":"24\/7","Handicap Access...":null,"coordinate":[-83.414155,40.341305]},{"Name":"McDonalds","Category":"Fast Food","Address":"1871 2nd Ave","Hours":"Store Hours","Handicap Access...":null,"coordinate":[-81.282074,44.597077]},{"Name":"McDonalds","Category":"Fast Food","Address":"2726 Broadway","Hours":"24\/7","Handicap Access...":null,"coordinate":[-89.38823,48.360315]},{"Name":"McDonalds","Category":"Fast Food","Address":"1499 3rd Ave & 85th St","Hours":"Store Hours","Handicap Access...":null,"coordinate":[-117.805313,49.08047]},{"Name":"McDonalds","Category":"Fast Food","Address":"1997 3rd Ave","Hours":"Store Hours","Handicap Access...":null,"coordinate":[-79.308113,43.163037]},{"Name":"McDonalds","Category":"Fast Food","Address":"2271 Broadway","Hours":"5am-11pm","Handicap Access...":null,"coordinate":[-122.322647,49.042927]},{"Name":"McDonalds","Category":"Fast Food","Address":"2142 3rd Ave","Hours":"24\/7","Handicap Access...":null,"coordinate":[-87.077419,45.742196]},{"Name":"McDonalds","Category":"Fast Food","Address":"148 W 125th St","Hours":"24\/7","Handicap Access...":null,"coordinate":[-73.947782,40.808463]},{"Name":"McDonalds","Category":"Fast Food","Address":"354 W 125th St","Hours":"Store Hours","Handicap Access...":null,"coordinate":[-73.953279,40.811057]},{"Name":"McDonalds","Category":"Fast Food","Address":"2049 Boradway at 71st","Hours":"24\/7","Handicap Access...":null,"coordinate":[-82.166157,41.452003]},{"Name":"McDonalds","Category":"Fast Food","Address":"125th St & Lexington Ave","Hours":"24\/7","Handicap Access...":null,"coordinate":[-84.50198,38.0394]},{"Name":"McDonalds","Category":"Fast Food","Address":"1286 1st Ave at 69th St","Hours":"Store Hours","Handicap Access...":null,"coordinate":[-90.346771,41.581689]},{"Name":"McDonalds","Category":"Fast Food","Address":"600 W 125th at Broadway","Hours":"Store Hours","Handicap Access...":null,"coordinate":[-118.289443,33.919122]},{"Name":"McDonalds","Category":"Fast Food","Address":"444 Lenox Ave\/132nd","Hours":"24\/7","Handicap Access...":null,"coordinate":[-73.941763,40.812276]},{"Name":"McDonalds","Category":"Fast Food","Address":"966 3rd Ave","Hours":"Store Hours","Handicap Access...":null,"coordinate":[-99.369262,49.868596]},{"Name":"McDonalds","Category":"Fast Food","Address":"946 8th Ave & 56th","Hours":"Store Hours","Handicap Access...":null,"coordinate":[28.19794,-25.699351]},{"Name":"McDonalds","Category":"Fast Food","Address":"85 Bruckner Blvd","Hours":"6am-11pm","Handicap Access...":null,"coordinate":[-73.925683,40.806315]},{"Name":"McDonalds","Category":"Fast Food","Address":"139th & Adam Clayton Powell","Hours":"Store Hours","Handicap Access...":null,"coordinate":[-73.947613,40.809095]},{"Name":"McDonalds","Category":"Fast Food","Address":"3410 Broadway 138th St","Hours":"24\/7","Handicap Access...":null,"coordinate":[-85.15666,41.05394]},{"Name":"McDonalds","Category":"Fast Food","Address":"1651 Broadway","Hours":"Store Hours","Handicap Access...":null,"coordinate":[-110.762626,50.077409]},{"Name":"McDonalds","Category":"Fast Food","Address":"969 1st Ave","Hours":"6am-10pm","Handicap Access...":null,"coordinate":[138.619211,-34.814513]},{"Name":"McDonalds","Category":"Fast Food","Address":"735 9th Ave","Hours":"Store Hours","Handicap Access...":null,"coordinate":[-106.649438,52.139129]},{"Name":"McDonalds","Category":"Fast Food","Address":"1188 6th Ave","Hours":"Store Hours","Handicap Access...":null,"coordinate":[-119.263689,52.831492]},{"Name":"McDonalds","Category":"Fast Food","Address":"824 3rd Ave 50th St","Hours":"25\/7","Handicap Access...":null,"coordinate":[-88.275532,41.175808]},{"Name":"Pless Hall","Category":"Other","Address":"82 Washington Sq E","Hours":"Store Hours","Handicap Access...":null,"coordinate":[-70.88776,42.52426]},{"Name":"Burger King","Category":"Fast Food","Address":"106 Fulton St","Hours":"Store Hours","Handicap Access...":null,"coordinate":[-100.941503,22.121003]},{"Name":"Burger King","Category":"Fast Food","Address":"106 Liberty St","Hours":"Store Hours","Handicap Access...":null,"coordinate":[-60.190209,46.138501]},{"Name":"Burger King","Category":"Fast Food","Address":"325 Broadway","Hours":"Store Hours","Handicap Access...":null,"coordinate":[-74.004956,40.716228]},{"Name":"Burger King","Category":"Fast Food","Address":"146 Delancey St","Hours":"Store Hours","Handicap Access...":null,"coordinate":[-73.986606,40.718336]},{"Name":"Burger King","Category":"Fast Food","Address":"417-21 Fulton St","Hours":"Store Hours","Handicap Access...":null,"coordinate":[-87.42357,41.6024]},{"Name":"Burger King","Category":"Fast Food","Address":"3310 21st St","Hours":"Store Hours","Handicap Access...":null,"coordinate":[-87.81897,42.70439]},{"Name":"Burger King","Category":"Fast Food","Address":"1313 Broadway","Hours":"Store Hours","Handicap Access...":null,"coordinate":[-104.598905,50.437632]},{"Name":"Burger King","Category":"Fast Food","Address":"474 7th Ave","Hours":"Store Hours","Handicap Access...":null,"coordinate":[145.072931,-37.481698]},{"Name":"Burger King","Category":"Fast Food","Address":"401-403 5th Ave","Hours":"Store Hours","Handicap Access...":null,"coordinate":[-73.985049,40.670402]},{"Name":"Burger King","Category":"Fast Food","Address":"971 Flatbush Ave","Hours":"Store Hours","Handicap Access...":null,"coordinate":[-73.957895,40.647901]},{"Name":"Burger King","Category":"Fast Food","Address":"327 W 42nd St","Hours":"Store Hours","Handicap Access...":null,"coordinate":[-87.634565,41.817935]},{"Name":"Burger King","Category":"Fast Food","Address":"226 E 86th St","Hours":"Store Hours","Handicap Access...":null,"coordinate":[-73.952984,40.778164]},{"Name":"Burger King","Category":"Fast Food","Address":"6413 14th Ave","Hours":"Store Hours","Handicap Access...":null,"coordinate":[-73.998937,40.62475]},{"Name":"Burger King","Category":"Fast Food","Address":"736 Broadway","Hours":"Store Hours","Handicap Access...":null,"coordinate":[-75.835217,44.925997]},{"Name":"Burger King","Category":"Fast Food","Address":"957 Marcy Ave","Hours":"Store Hours","Handicap Access...":null,"coordinate":[-73.946013,40.68038]},{"Name":"Burger King","Category":"Fast Food","Address":"4101 4th Ave","Hours":"Store Hours","Handicap Access...":null,"coordinate":[-90.478853,41.512943]},{"Name":"Burger King","Category":"Fast Food","Address":"1727 Bedford Ave","Hours":"Store Hours","Handicap Access...":null,"coordinate":[-73.956994,40.664121]},{"Name":"Burger King","Category":"Fast Food","Address":"9006 Church Ave","Hours":"Store Hours","Handicap Access...":null,"coordinate":[-73.919532,40.652785]},{"Name":"Burger King","Category":"Fast Food","Address":"3301 Ft Hamilton Pkwy","Hours":"Store Hours","Handicap Access...":null,"coordinate":[-73.981556,40.646997]},{"Name":"Burger King","Category":"Fast Food","Address":"1412 Myrtle Ave","Hours":"Store Hours","Handicap Access...":null,"coordinate":[-80.81224,41.886185]},{"Name":"Burger King","Category":"Fast Food","Address":"5212-15 5th Ave","Hours":"Store Hours","Handicap Access...":null,"coordinate":[-100.279052,46.80782]},{"Name":"Burger King","Category":"Fast Food","Address":"1886 3rd Ave","Hours":"Store Hours","Handicap Access...":null,"coordinate":[-79.313183,43.163019]},{"Name":"Burger King","Category":"Fast Food","Address":"33-10 Asotria Blvd","Hours":"Store Hours","Handicap Access...":null,"coordinate":[-73.916497,40.769441]},{"Name":"Burger King","Category":"Fast Food","Address":"13 Hillel Pl","Hours":"Store Hours","Handicap Access...":null,"coordinate":[-73.948241,40.632627]},{"Name":"Burger King","Category":"Fast Food","Address":"8002 Foster Ave","Hours":"Store Hours","Handicap Access...":null,"coordinate":[-73.9185,40.64055]},{"Name":"Burger King","Category":"Fast Food","Address":"154 E 116 St","Hours":"Store Hours","Handicap Access...":null,"coordinate":[-73.941453,40.798321]},{"Name":"Burger King","Category":"Fast Food","Address":"1940 Linden Blvd","Hours":"Store Hours","Handicap Access...":null,"coordinate":[-73.88993,40.658481]},{"Name":"Burger King","Category":"Fast Food","Address":"130 W 125th St","Hours":"Store Hours","Handicap Access...":null,"coordinate":[-81.77478,41.43778]},{"Name":"Burger King","Category":"Fast Food","Address":"2164 86th St","Hours":"Store Hours","Handicap Access...":null,"coordinate":[-73.994628,40.602121]},{"Name":"Burger King","Category":"Fast Food","Address":"39-24 104th St","Hours":"Store Hours","Handicap Access...":null,"coordinate":[-73.861983,40.750171]},{"Name":"Burger King","Category":"Fast Food","Address":"624 S Conduit Blvd","Hours":"Store Hours","Handicap Access...":null,"coordinate":[-73.869894,40.676742]},{"Name":"Burger King","Category":"Fast Food","Address":"1772 Rockaway Pkwy","Hours":"Store Hours","Handicap Access...":null,"coordinate":[-73.895045,40.637885]},{"Name":"Burger King","Category":"Fast Food","Address":"23-43 Utica Ave","Hours":"Store Hours","Handicap Access...":null,"coordinate":[-73.926019,40.613729]},{"Name":"Burger King","Category":"Fast Food","Address":"2425 Coney Island Ave","Hours":"Store Hours","Handicap Access...":null,"coordinate":[-73.960836,40.597712]},{"Name":"Burger King","Category":"Fast Food","Address":"557 Grand Concourse","Hours":"Store Hours","Handicap Access...":null,"coordinate":[-73.927407,40.819086]},{"Name":"Burger King","Category":"Fast Food","Address":"521 E 149th St","Hours":"Store Hours","Handicap Access...":null,"coordinate":[-73.914425,40.815086]},{"Name":"Burger King","Category":"Fast Food","Address":"103-107 E 161 St","Hours":"Store Hours","Handicap Access...":null,"coordinate":[-95.73271,35.92421]},{"Name":"Burger King","Category":"Fast Food","Address":"20 Willowbrook Rd","Hours":"Store Hours","Handicap Access...":null,"coordinate":[138.668125,-34.862403]},{"Name":"Burger King","Category":"Fast Food","Address":"1565 Hylan Blvd","Hours":"Store Hours","Handicap Access...":null,"coordinate":[-74.089081,40.590542]},{"Name":"Burger King","Category":"Fast Food","Address":"950 Jewett Ave","Hours":"Store Hours","Handicap Access...":null,"coordinate":[-74.130998,40.613046]},{"Name":"Burger King","Category":"Fast Food","Address":"977 South Blvd","Hours":"Store Hours","Handicap Access...":null,"coordinate":[-83.252323,42.619849]},{"Name":"Burger King","Category":"Fast Food","Address":"120-102 Liberty Ave","Hours":"Store Hours","Handicap Access...":null,"coordinate":[-73.31973,40.71755]},{"Name":"Burger King","Category":"Fast Food","Address":"1380 Jerome Ave","Hours":"Store Hours","Handicap Access...":null,"coordinate":[-85.677251,42.931249]},{"Name":"Burger King","Category":"Fast Food","Address":"1419 Saint Nicholas Ave","Hours":"Store Hours","Handicap Access...":null,"coordinate":[-73.934152,40.849167]},{"Name":"Burger King","Category":"Fast Food","Address":"400 East Tremont Ave","Hours":"Store Hours","Handicap Access...":null,"coordinate":[-73.900798,40.847463]},{"Name":"Burger King","Category":"Fast Food","Address":"1851-1859 Bruckner Blvd","Hours":"Store Hours","Handicap Access...":null,"coordinate":[-73.862897,40.82718]},{"Name":"Burger King","Category":"Fast Food","Address":"2036-2048 Jerome Ave","Hours":"Store Hours","Handicap Access...":null,"coordinate":[-73.907397,40.8535]},{"Name":"Burger King","Category":"Fast Food","Address":"2800 Hylan Blvd","Hours":"Store Hours","Handicap Access...":null,"coordinate":[-74.115205,40.563934]},{"Name":"Burger King","Category":"Fast Food","Address":"215-213 E Forham Rd","Hours":"Store Hours","Handicap Access...":null,"coordinate":[-73.890526,40.861145]},{"Name":"Burger King","Category":"Fast Food","Address":"2557 Richmond Ave","Hours":"Store Hours","Handicap Access...":null,"coordinate":[-74.168176,40.585419]},{"Name":"Burger King","Category":"Fast Food","Address":"2655 Ricmond Ave","Hours":"Store Hours","Handicap Access...":null,"coordinate":[-74.162399,40.59532]},{"Name":"Burger King","Category":"Fast Food","Address":"2179 White Plains Rd","Hours":"Store Hours","Handicap Access...":null,"coordinate":[-73.867963,40.855774]},{"Name":"Burger King","Category":"Fast Food","Address":"1590 Hutchinson River Pkwy","Hours":"Store Hours","Handicap Access...":null,"coordinate":[-73.836583,40.842979]},{"Name":"Burger King","Category":"Fast Food","Address":"6007 Broadway","Hours":"Store Hours","Handicap Access...":null,"coordinate":[-81.6481,41.46487]},{"Name":"Burger King","Category":"Fast Food","Address":"3500 Boston Rd","Hours":"Store Hours","Handicap Access...":null,"coordinate":[-81.793575,41.276317]},{"Name":"Burger King","Category":"Fast Food","Address":"3901 Richmond Ave","Hours":"Store Hours","Handicap Access...":null,"coordinate":[-93.5394,41.6238]},{"Name":"Burger King","Category":"Fast Food","Address":"4275 White Plains Rd","Hours":"Store Hours","Handicap Access...":null,"coordinate":[-73.856529,40.895521]},{"Name":"kimball Block (NYU)","Category":"Other","Address":"283 Mercer St","Hours":"Building Hours","Handicap Access...":null,"coordinate":[-82.163308,42.398162]},{"Name":"Barney Building (NYU)","Category":"Other","Address":"34 Stuyvesant St","Hours":"Building Hours","Handicap Access...":null,"coordinate":[-73.36876,40.84888]},{"Name":"Ehrenkranz Silver School of Social Work (NYU)","Category":"Other","Address":"1 Washington Sq N","Hours":"Building Hours","Handicap Access...":null,"coordinate":[-0.71072,52.40322]},{"Name":"Bronfman Center (NYU)","Category":"Other","Address":"7 East 10th St","Hours":"Building Hours","Handicap Access...":null,"coordinate":[-85.05207,41.36688]},{"Name":"Alley Park","Category":"Public","Address":"67 Ave & 230 St","Hours":"park hours","Handicap Access...":"no","coordinate":[-74.365293,45.134527]},{"Name":"Alstyne Playground","Category":"Public","Address":"Alystine Ave & 102 St","Hours":"park hours","Handicap Access...":"no","coordinate":[-46.650246,-23.480481]},{"Name":"Ampere Playground (PS 64)","Category":"Public","Address":"101 Ave & 82 St","Hours":"park hours","Handicap Access...":"no","coordinate":[-74.005863,45.79606]},{"Name":"Annandale Playground","Category":"Public","Address":"Yellowstone Blvd & 65 Rd & 65 Ave","Hours":"park hours","Handicap Access...":"yes","coordinate":[73.493957,29.582597]},{"Name":"Arrow Community Garden","Category":"Public","Address":"35th St & 36th Ave","Hours":"park hours","Handicap Access...":"no","coordinate":[-97.372605,41.450085]},{"Name":"Astoria Heights Playground","Category":"Public","Address":"30 Rd, 45 to 46 St","Hours":"park hours","Handicap Access...":"no","coordinate":[33.811944,29.207676]},{"Name":"Aubondale Playground","Category":"Public","Address":"170-171 St & 33-35 Ave","Hours":"park hours","Handicap Access...":"no","coordinate":[2.579231,48.800281]},{"Name":"Baisley Pond Park","Category":"Public","Address":"157 St & 116 Ave","Hours":"park hours","Handicap Access...":"no","coordinate":[2.606889,48.809506]},{"Name":"Bay Terrace Playground","Category":"Public","Address":"23 Ave & 212 St","Hours":"park hours","Handicap Access...":"no","coordinate":[-73.936885,45.529587]},{"Name":"Bayside Fields","Category":"Public","Address":"204 St & 29 Ave, Clearview Expressway","Hours":"park hours","Handicap Access...":"yes","coordinate":[-66.67232,45.979781]},{"Name":"Bayside Playground","Category":"Public","Address":"Beach Channel Dr & Seaside Ave","Hours":"park hours","Handicap Access...":"no","coordinate":[6.560498,52.9952273]},{"Name":"Bellaire Playground","Category":"Public","Address":"89 Ave & 207 & 208 St","Hours":"park hours","Handicap Access...":"no","coordinate":[-74.386324,45.1274662]},{"Name":"Big Bush Park","Category":"Public","Address":"61 St & Brooklyn-Queens Expressway","Hours":"park hours","Handicap Access...":"no","coordinate":[28.236047,-25.757801]},{"Name":"Bowne Playground","Category":"Public","Address":"Union Street & Stanford Ave","Hours":"park hours","Handicap Access...":"no","coordinate":[-73.825173,40.757667]},{"Name":"Breininger park","Category":"Public","Address":"Braddock Ave & 240 St","Hours":"park hours","Handicap Access...":"no","coordinate":[-73.7284999,40.7264744]},{"Name":"Brookville Park","Category":"Public","Address":"Conduit Ave & Brookville Blvd & 144th Ave & 233rd ...","Hours":"park hours","Handicap Access...":"no","coordinate":[-77.139707,38.771001]},{"Name":"Cabbell Park\/Cambria Palyground","Category":"Public","Address":"121 Ave & 220 St","Hours":"park hours","Handicap Access...":"no","coordinate":[-70.576055,46.1776186]},{"Name":"Captain Tilly Park","Category":"Public","Address":"Highland Ave & Upland Pkwy & Gothic Pkwy & 85 Ave","Hours":"park hours","Handicap Access...":"no","coordinate":[-5.003837,57.506636]},{"Name":"Captain Mario Fajardo Park","Category":"Public","Address":"Kissena Blvd & Booth Memorial Ave","Hours":"park hours","Handicap Access...":"no","coordinate":[-73.814309,40.742974]},{"Name":"Castlewood Playground","Category":"Public","Address":"Little Neck Pkwy & 72 Ave","Hours":"park hours","Handicap Access...":"no","coordinate":[-73.684795,40.712765]},{"Name":"Challenge Playground","Category":"Public","Address":"251 St & 63 Ave","Hours":"park hours","Handicap Access...":"no","coordinate":[17.688533,40.31516]},{"Name":"Clement Clark Moore Park","Category":"Public","Address":"Broadway & 83 St","Hours":"park hours","Handicap Access...":"no","coordinate":[-79.212906,43.224873]},{"Name":"Clintonville Playground","Category":"Public","Address":"Clintonville St & 17 Rd & 17 Ave","Hours":"park hours","Handicap Access...":"no","coordinate":[-5.963852,37.365423]},{"Name":"College Point Park","Category":"Public","Address":"130th St & 23rd Ave","Hours":"park hours","Handicap Access...":"no","coordinate":[-73.8388731,40.7786234]},{"Name":"Corona Golf Playground","Category":"Public","Address":"109 St & 46-47 Ave","Hours":"park hours","Handicap Access...":"no","coordinate":[2.580129,48.800564]},{"Name":"Crocheron Park Field House","Category":"Public","Address":"34th Ave & 214th Pl & 34th Rd & 214th Ln & 35th Av...","Hours":"park hours","Handicap Access...":"no","coordinate":[15.502543,46.838247]},{"Name":"Crowley Playground","Category":"Public","Address":"57 Ave & 83 St","Hours":"park hours","Handicap Access...":"no","coordinate":[-73.8536811,45.5842742]},{"Name":"Cunningham Park","Category":"Public","Address":"210 St & 73 Ave","Hours":"park hours","Handicap Access...":"yes","coordinate":[2.630172,48.757777]},{"Name":"Ditmars Park Playground","Category":"Public","Address":"23 Ave to Ditmars Blvd","Hours":"park hours","Handicap Access...":"no","coordinate":[-73.98454,40.598043]},{"Name":"East Elmhurst Playground","Category":"Public","Address":"25 Ave & 98 St","Hours":"park hours","Handicap Access...":"yes","coordinate":[-73.9091452,45.5931864]},{"Name":"East Springfield Playground","Category":"Public","Address":"115 Rd between 218 & 219 St","Hours":"park hours","Handicap Access...":"no","coordinate":[-71.04923,46.675778]},{"Name":"Ederle Comfort Station","Category":"Public","Address":"Grand Central pkwy & Whitestone Exwy between 111 S...","Hours":"park hours","Handicap Access...":"yes","coordinate":[-144.803292,65.572083]},{"Name":"Farm Playground","Category":"Public","Address":"73 Ave & 195 St & 196 Pl","Hours":"park hours","Handicap Access...":"no","coordinate":[11.686202,51.744063]},{"Name":"Fisher Pool","Category":"Public","Address":"32 Ave & 99 St","Hours":"park hours","Handicap Access...":"no","coordinate":[-73.940597,45.523917]},{"Name":"Flushing Meadows Corona Park","Category":"Public","Address":"Park Drive E & 73 Terrace","Hours":"park hours","Handicap Access...":"no","coordinate":[-73.8267052,40.7230788]},{"Name":"Flushing Meadows Corona Park","Category":"Public","Address":"College Point Blvd & Lawrence St","Hours":"park hours","Handicap Access...":"no","coordinate":[-74.683117,44.797921]},{"Name":"Flushing Meadows Corona Park","Category":"Public","Address":"111 St & Corona Ave","Hours":"park hours","Handicap Access...":"yes","coordinate":[-8.435259,40.666246]},{"Name":"Flushing Meadows Corona Park","Category":"Public","Address":"Grand Central Pkwy & Van Wyck Expressway","Hours":"park hours","Handicap Access...":"no","coordinate":[-82.289581,36.326218]},{"Name":"Forest Park","Category":"Public","Address":"80 St & Myrtle Ave","Hours":"park hours","Handicap Access...":"no","coordinate":[15.493773,40.976783]},{"Name":"Froest Park","Category":"Public","Address":"108 St & Park Lane S","Hours":"park hours","Handicap Access...":"no","coordinate":[-2.305663,53.541428]},{"Name":"Forest Park","Category":"Public","Address":"Park Lane South & Abingdon Rd","Hours":"park hours","Handicap Access...":"no","coordinate":[-73.834812,40.709643]},{"Name":"Forest Park","Category":"Public","Address":"Woodhaven Blvd & Forest Park Dr","Hours":"park hours","Handicap Access...":"no","coordinate":[-84.369092,33.622054]},{"Name":"Francis Lewis Playground","Category":"Public","Address":"3 Ave & Bronx Whitestone Bridge","Hours":"park hours","Handicap Access...":"no","coordinate":[-73.817367,40.818949]},{"Name":"Frank Golden Park","Category":"Public","Address":"132 to 138 St & 14 Rd","Hours":"park hours","Handicap Access...":null,"coordinate":[51.7236543,32.7111218]},{"Name":"Fresh Meadows Playground","Category":"Public","Address":"67 Ave & 173 St","Hours":"park hours","Handicap Access...":"no","coordinate":[-74.279195,45.1737161]},{"Name":"Gunn Park","Category":"Public","Address":"Hillside Ave, east of 235 Court","Hours":"park hours","Handicap Access...":null,"coordinate":[-75.92492,41.297303]},{"Name":"Haggerty Park","Category":"Public","Address":"202 St & Jamaica Ave","Hours":"park hours","Handicap Access...":"yes","coordinate":[-8.435451,40.666572]},{"Name":"Hallets Cove Playground","Category":"Public","Address":"Hallets Cove & Vernon Blvd","Hours":"park hours","Handicap Access...":null,"coordinate":[-94.91808,29.76824]},{"Name":"Hammel Playground","Category":"Public","Address":"Rockaway Beach Blvd between beach 84 St & Beac...","Hours":"park hours","Handicap Access...":null,"coordinate":[-123.943147,45.613598]},{"Name":"Harold Schneideman Playground","Category":"Public","Address":"155 Ave & 83 St","Hours":"park hours","Handicap Access...":"yes","coordinate":[-73.9564939,45.9119876]},{"Name":"Highland Park","Category":"Public","Address":"Jamaica Ave & Elton St, Heath Pl & Highland Blvd","Hours":"park hours","Handicap Access...":"no","coordinate":[-123.381128,39.824043]},{"Name":"Holy Cow Playground","Category":"Public","Address":"Peck Ave & Harding Blvd","Hours":"park hours","Handicap Access...":"no","coordinate":[-77.545681,43.176848]},{"Name":"Hoover Playground","Category":"Public","Address":"Manton St & 83 Ave","Hours":"park hours","Handicap Access...":"no","coordinate":[-73.821083,40.712539]},{"Name":"Horace Harding Playground","Category":"Public","Address":"62 Dr between 97 Pl & 98 St","Hours":"park hours","Handicap Access...":null,"coordinate":[9.814045,46.96957]},{"Name":"John Golden Park","Category":"Public","Address":"215 Pl & south of 32 Ave","Hours":"park hours","Handicap Access...":"yes","coordinate":[12.9086967,2.6881211]},{"Name":"Joseph Austin Playground","Category":"Public","Address":"Grand Central Pkwy & 164 Pl","Hours":"park hours","Handicap Access...":"no","coordinate":[-73.801837,40.716253]},{"Name":"Joseph F. Mafera Park","Category":"Public","Address":"65 Pl & Catalpa Ave & 68 Ave","Hours":"park hours","Handicap Access...":"no","coordinate":[115.958099,-31.777758]},{"Name":"Juniper Valley Park","Category":"Public","Address":"62nd Ave & 80th St","Hours":"park hours","Handicap Access...":"yes","coordinate":[-73.877674,40.723101]},{"Name":"K.L. Williams Playground","Category":"Public","Address":"Liberty Ave & 172-173 St","Hours":"park hours","Handicap Access...":"no","coordinate":[-87.41448,39.4543]},{"Name":"Katzman Playground","Category":"Public","Address":"Yellowstone Blvd between 68 Ave & 68 Rd","Hours":"park hours","Handicap Access...":null,"coordinate":[-72.895936,40.893988]},{"Name":"Kissena Corridor East","Category":"Public","Address":"Peck Ave & 188 St","Hours":"park hours","Handicap Access...":"no","coordinate":[144.914997,-37.729213]},{"Name":"Kissena Park","Category":"Public","Address":"Rose Ave & Oak Ave","Hours":"park hours","Handicap Access...":"no","coordinate":[-73.807506,40.750137]},{"Name":"Lawrence Virgilio Playground","Category":"Public","Address":"39 Drive & 54 St","Hours":"park hours","Handicap Access...":null,"coordinate":[-105.04792,38.9868]},{"Name":"Liberty Pool","Category":"Public","Address":"173rd St & 106th Ave","Hours":"park hours","Handicap Access...":"yes","coordinate":[-73.7831049,40.7020672]},{"Name":"Linden Park","Category":"Public","Address":"104 St & 41 Ave","Hours":"park hours","Handicap Access...":"no","coordinate":[2.627724,48.75569]},{"Name":"Loring Field","Category":"Public","Address":"north Conduit & 149 Ave","Hours":"park hours","Handicap Access...":"no","coordinate":[-55.7218206,-22.4922952]},{"Name":"Lost Battalion Hall","Category":"Public","Address":"Queens Blvd beetween 62 Ave & 62 Rd","Hours":"park hours","Handicap Access...":null,"coordinate":[73.506972,29.605271]},{"Name":"Lou Lodati Playground","Category":"Public","Address":"Skillman Ave & 43 St","Hours":"park hours","Handicap Access...":"no","coordinate":[-73.9208044,40.7468906]},{"Name":"Louis Armstrong Playground","Category":"Public","Address":"37 Ave between 112 & 113 St","Hours":"park hours","Handicap Access...":null,"coordinate":[-73.704079,45.550431]},{"Name":"Louis Pasteur Park","Category":"Public","Address":"248 St & 51 Ave","Hours":"park hours","Handicap Access...":"no","coordinate":[2.628194,48.755951]},{"Name":"Maple Playground","Category":"Public","Address":"Kissena Blvd & Maple Ave","Hours":"park hours","Handicap Access...":"yes","coordinate":[-73.825781,40.756354]},{"Name":"Marconi Park","Category":"Public","Address":"109Ave & 155 St","Hours":"park hours","Handicap Access...":"no","coordinate":[6.776454,46.191608]},{"Name":"Marie Curie Park","Category":"Public","Address":"211 & Oceana St & 46 Ave","Hours":"park hours","Handicap Access...":"no","coordinate":[-97.38568,41.43844]},{"Name":"Maurice A. Fitzgerald Playground","Category":"Public","Address":"Atlantic Ave & 106 St","Hours":"park hours","Handicap Access...":"no","coordinate":[-73.8392633,40.6907918]},{"Name":"Maurice Park","Category":"Public","Address":"Mauric Ave & Borden Ave & 54 Ave & 63 ...","Hours":"park hours","Handicap Access...":null,"coordinate":[-85.945804,38.466728]},{"Name":"Michaelis-Bayswater Park","Category":"Public","Address":"Beach Channel Dr & B 32 St & Dwight Ave & Norton A...","Hours":"park hours","Handicap Access...":"yes","coordinate":[-81.63818,41.029222]},{"Name":"Montbellier Park","Category":"Public","Address":"Springfield Blvd & 139 Ave","Hours":"park hours","Handicap Access...":"no","coordinate":[-73.756255,40.6733848]},{"Name":"Nautilus Playground","Category":"Public","Address":"Merrick & Baisley Blvd","Hours":"park hours","Handicap Access...":"no","coordinate":[-72.63299,42.10745]},{"Name":"Noonan Playground","Category":"Public","Address":"Greenpoint & 47th Ave & 43 St","Hours":"park hours","Handicap Access...":"no","coordinate":[-73.93311,40.725644]},{"Name":"North Rochdale Playground","Category":"Public","Address":"Baisley Blvd & Bedell St","Hours":"park hours","Handicap Access...":"no","coordinate":[-73.7747,40.680487]},{"Name":"Nicholas Demutis Playground","Category":"Public","Address":"102 St & Liberty Ave","Hours":"park hours","Handicap Access...":"no","coordinate":[0.701237,47.285723]},{"Name":"Playground 90","Category":"Public","Address":"Northern Blvd & 90 St","Hours":"park hours","Handicap Access...":"no","coordinate":[-2.205823,53.058973]},{"Name":"Playground 75","Category":"Public","Address":"106 St & 75 Ave","Hours":"park hours","Handicap Access...":null,"coordinate":[14.853271,41.035464]},{"Name":"Queens Farm Museum","Category":"Public","Address":"Little Neck Pkwy & Commonwealth Blvd & south of Gr...","Hours":"park hours","Handicap Access...":"no","coordinate":[-81.204502,36.575014]},{"Name":"Rainey Park","Category":"Public","Address":"Vernon Blvd & 33 Rd & 34 St & East River","Hours":"park hours","Handicap Access...":null,"coordinate":[-64.141274,44.567725]},{"Name":"Real Good Park","Category":"Public","Address":"LIE, 99 St & 62 Ave","Hours":"park hours","Handicap Access...":"yes","coordinate":[6.611624,46.522771]},{"Name":"Reiff Playground","Category":"Public","Address":"Fresh Pond Rd & 63 St & 59 Dr","Hours":"park hours","Handicap Access...":null,"coordinate":[12.027852,51.042542]},{"Name":"Rochdale Park","Category":"Public","Address":"Guy Brewer Blvd & 134 Ave","Hours":"park hours","Handicap Access...":"no","coordinate":[-58.9747808781,5.6238227903]},{"Name":"Roy Wilkins Recreation Center","Category":"Public","Address":"se of fence running from 118th Rd to hospital","Hours":"park hours","Handicap Access...":null,"coordinate":[17.6754094331,64.9648751622]},{"Name":"Seaside Playground","Category":"Public","Address":"Rockaway Beach Blvd & B109-B110 St","Hours":"park hours","Handicap Access...":null,"coordinate":[-122.495253,37.608548]},{"Name":"Smokey Oval","Category":"Public","Address":"125 St & Atlantic Ave","Hours":"park hours","Handicap Access...":"no","coordinate":[-8.435102,40.666113]},{"Name":"Springfield Park","Category":"Public","Address":"149 Ave & Springfield Blvd & 145 Rd & ...","Hours":"park hours","Handicap Access...":null,"coordinate":[-89.61894,39.76174]},{"Name":"St. Albans Park","Category":"Public","Address":"174 St & 113 Ave","Hours":"park hours","Handicap Access...":"no","coordinate":[14.484106,41.196794]},{"Name":"Tall Oak Playground","Category":"Public","Address":"64 Ave & 218 st & 219 St","Hours":"park hours","Handicap Access...":"no","coordinate":[-74.3638375,45.1357705]},{"Name":"Union Playground","Category":"Public","Address":"Union St & 31 Rd","Hours":"park hours","Handicap Access...":"no","coordinate":[-73.826566,40.770642]},{"Name":"Vleigh Place Playground","Category":"Public","Address":"Vleigh Pl & 141 St","Hours":"park hours","Handicap Access...":"no","coordinate":[-73.820635,40.7194241]},{"Name":"Vleigh Playground","Category":"Public","Address":"70 Rd to 71 Ave","Hours":"park hours","Handicap Access...":"yes","coordinate":[8.007271,45.389221]},{"Name":"Wayanda Park","Category":"Public","Address":"Robard Ln & 217 St","Hours":"park hours","Handicap Access...":null,"coordinate":[4.305824,52.075532]},{"Name":"Weeping Beech Park","Category":"Public","Address":"37 Ave & Bowne St","Hours":"park hours","Handicap Access...":"no","coordinate":[-73.8633566,45.5743727]},{"Name":"Whitestone Playground","Category":"Public","Address":"12 Ave & 153 St","Hours":"park hours","Handicap Access...":"no","coordinate":[-73.8800206,45.5678757]},{"Name":"Willow Lake Playground","Category":"Public","Address":"Grand Cetral Pkwy between 71 & 72 Ave","Hours":"park hours","Handicap Access...":"no","coordinate":[-75.264069,40.844262]},{"Name":"Arrochar Playground","Category":"Public","Address":"Sand Lane & Major Ave & McFarland Ave","Hours":"park hours","Handicap Access...":"yes","coordinate":[-89.289765,43.012349]},{"Name":"Blood Root Valley","Category":"Public","Address":"Rockland ave & Manor ave & Brielle ave & Forest Hi...","Hours":"park hours","Handicap Access...":"yes","coordinate":[-157.855676,21.304547]},{"Name":"Boomingdale Park","Category":"Public","Address":"Richmond Pkwy & Bloomingdale Rd & Lenevar Ave","Hours":"park hours","Handicap Access...":"yes","coordinate":[-84.126871,37.887024]},{"Name":"Blue Heron Park Preserve","Category":"Public","Address":"Poillon Ave","Hours":"park hours","Handicap Access...":"yes","coordinate":[-74.17587,40.52896]},{"Name":"Corporal Thompson","Category":"Public","Address":"Broadway & Henderson Ave","Hours":"park hours","Handicap Access...":"yes","coordinate":[-74.1175498,40.6369622]},{"Name":"Dematti Playground","Category":"Public","Address":"Tompkins Ave & Chestnut Ave","Hours":"park hours","Handicap Access...":"no","coordinate":[-74.0734408,40.6153983]},{"Name":"Double Nickel Playground","Category":"Public","Address":"Osborne St & Preston Ave","Hours":"park hours","Handicap Access...":"yes","coordinate":[-74.162272,40.53747]},{"Name":"Dugan Playground","Category":"Public","Address":"Mill Rd & Tysens Lane","Hours":"park hours","Handicap Access...":"no","coordinate":[-74.112263,40.561458]},{"Name":"Grandview Playground","Category":"Public","Address":"Grandview Ave & Continental Pl","Hours":"park hours","Handicap Access...":"yes","coordinate":[-74.165324,40.630289]},{"Name":"High Rock Park","Category":"Public","Address":"Richmond Pkwy & Moravian Cemetery at Rockland Ave","Hours":"park hours","Handicap Access...":"yes","coordinate":[14.3001435908,47.6077978293]},{"Name":"Joline Pool Playground","Category":"Public","Address":"Joline Ave & Hylan Blvd","Hours":"park hours","Handicap Access...":"yes","coordinate":[-117.988953,33.723358]},{"Name":"Lyons Pool","Category":"Public","Address":"Pier 6 & Victory Blvd","Hours":"park hours","Handicap Access...":"yes","coordinate":[-2.94609,53.73771]},{"Name":"Midland Beach & Boardwalk","Category":"Public","Address":"Natural Area and Boardwalk from Sands Lane to Vulc...","Hours":"park hours","Handicap Access...":"yes","coordinate":[7.550088,45.482943]},{"Name":"Midland Field","Category":"Public","Address":"Midland Ave & Mason Ave","Hours":"park hours","Handicap Access...":"yes","coordinate":[-88.1156795,41.5355438]},{"Name":"Midland Playground","Category":"Public","Address":"Lincoln ave & Mason ave","Hours":"park hours","Handicap Access...":"no","coordinate":[-87.7753022,42.0354537]},{"Name":"Old Town Playground","Category":"Public","Address":"Parkinson Ave & Kramer St","Hours":"park hours","Handicap Access...":"no","coordinate":[-74.082153,40.595656]},{"Name":"Prescott Playground","Category":"Public","Address":"Hylan Blvd & Huguenot Ave","Hours":"park hours","Handicap Access...":"no","coordinate":[-74.186099,40.523996]},{"Name":"Schmul Park","Category":"Public","Address":"Wild Ave & Pearson St","Hours":"park hours","Handicap Access...":"no","coordinate":[-74.188456,40.59066]},{"Name":"Silver Lake Park","Category":"Public","Address":"Victory Blvd & Clove Rd & Forest Ave","Hours":"park hours","Handicap Access...":"no","coordinate":[-87.813948,41.897809]},{"Name":"South Beach Wetlands","Category":"Public","Address":"Quintard St. Bet. Quincy Ave & Father Capodanno Bl...","Hours":"park hours","Handicap Access...":"yes","coordinate":[-91.307091,40.02088]},{"Name":"Stapleton Playground","Category":"Public","Address":"Tompkins ave & Broad St","Hours":"park hours","Handicap Access...":"yes","coordinate":[-74.0795897,40.624615]},{"Name":"Terrace Playground","Category":"Public","Address":"Howard Ave & Martha St","Hours":"park hours","Handicap Access...":"yes","coordinate":[-74.097926,40.6134823]},{"Name":"Todt Hill Playground","Category":"Public","Address":"Schmidts Ln & Manor Rd","Hours":"park hours","Handicap Access...":"yes","coordinate":[-74.1211663,40.6088436]},{"Name":"Willowbrook Park","Category":"Public","Address":"Richmond Ave & Vitory Blvd","Hours":"park hours","Handicap Access...":"no","coordinate":[-77.4683193333,37.5728593333]},{"Name":"Ziegfeld Theatre","Category":"Other","Address":"141 W. 54th Street","Hours":null,"Handicap Access...":"Unknown","coordinate":[-73.979821,40.763068]},{"Name":"Gregory's Coffee","Category":"Coffee Shop","Address":"6 E 46th Street, New York, NY 10017","Hours":null,"Handicap Access...":"Unknown","coordinate":[-73.978422,40.755559]},{"Name":"ROOF at Whole Foods","Category":"Other","Address":"214 3rd Street, Brooklyn, NY 11215","Hours":"8 am to 11 pm","Handicap Access...":null,"coordinate":[-73.988779,40.674955]},{"Name":"Lowe's","Category":"Other","Address":"Lowe's Home Improvement 118 2nd Avenue, Brookl...","Hours":null,"Handicap Access...":"Yes","coordinate":[-84.989228,32.497414]},{"Name":"Home Depot","Category":"Other","Address":"40 west 23 street","Hours":null,"Handicap Access...":"Yes","coordinate":[-73.992445,40.742458]},{"Name":"Indikitch","Category":"Fast Food","Address":"25 west 23 Street","Hours":null,"Handicap Access...":"Yes","coordinate":[-75.97503,40.97573]},{"Name":"McDonald's","Category":"Fast Food","Address":"34th street and 10th avenue ny ny","Hours":"24 hours","Handicap Access...":"No","coordinate":[-74.00853,40.74153]},{"Name":"Morton Williams","Category":"Public","Address":"908 Second Avenue, New York, NY","Hours":"24 Hours","Handicap Access...":"Unknown","coordinate":[-73.968986,40.75384]},{"Name":"vandana","Category":"Public","Address":"3 Allen st","Hours":"1","Handicap Access...":null,"coordinate":[153.311137,-27.582539]},{"Name":"Famiglia Pizza","Category":"Fast Food","Address":"757 Broadway(At 8th Street)","Hours":"10AM-11:30PM(2:30 AM Friday\/Saturday)","Handicap Access...":"Unknown","coordinate":[-88.08558,41.53791]},{"Name":"Brooklyn Roasting Company","Category":"Coffee Shop","Address":"25 Jay St, Brooklyn, NY 11201, USA","Hours":"7am - 7pm","Handicap Access...":null,"coordinate":[-73.986447,40.70444]},{"Name":"Brooklyn Roadting Compny","Category":"Coffee Shop","Address":"45 Washington St, Brooklyn, NY 11201, USA","Hours":"7am-7pm","Handicap Access...":null,"coordinate":[-73.989461,40.702896]},{"Name":"B&H Photo and Video","Category":"Other","Address":"420 9th Ave, New York, NY 10001","Hours":"10:00am - 7:00pm Monday - Thursday, 10:00am-1:00pm...","Handicap Access...":"Yes","coordinate":[-73.9963,40.75307]},{"Name":"Bobby's Department Store","Category":"Other","Address":"1628 Church Ave.","Hours":"10am-8pm Mon - Sat; 11am-7pm Sunday","Handicap Access...":"Unknown","coordinate":[-73.964191,40.648745]},{"Name":"Green-Wood Cemetery","Category":"Public","Address":"500 25th St, Brooklyn, NY 11232","Hours":"Daily, 7am - 7pm","Handicap Access...":"No","coordinate":[-73.996141,40.659104]},{"Name":"Industry City","Category":"Public","Address":"220 36th St, Brooklyn, NY 11232","Hours":"Daily, 9am - 9pm","Handicap Access...":"Yes","coordinate":[-74.008157,40.656364]},{"Name":"The Picnic House","Category":"Public","Address":"40 West Dr, Brooklyn, NY 11215","Hours":null,"Handicap Access...":"Yes","coordinate":[-73.97153,40.66542]},{"Name":"Brooklyn Museum (Lobby)","Category":"Other","Address":"200 Eastern Pkwy, Brooklyn, NY 11238","Hours":"W-Su, 11am - 6pm","Handicap Access...":"Yes","coordinate":[-73.963593,40.671117]},{"Name":"Jacob Riis Park Bazaar","Category":"Public","Address":"Rockaway Park, NY 11694","Hours":null,"Handicap Access...":"Yes","coordinate":[-73.836154,40.58051]},{"Name":"Panera Bread","Category":"Coffee Shop","Address":"528 Gateway Dr Mailbox 2, Unit 12, Brooklyn, NY 11...","Hours":null,"Handicap Access...":"Yes","coordinate":[-73.65302,40.705133]}]